airportID,airportName,city,country,IATA,ICAO,latitude,longitude,altitude,timezone,DST,tz_olson,type,source
1197,Larnaca International Airport,Larnaca,Cyprus,LCA,LCLK,34.875099182128906,33.624900817871094,8,2,E,Asia/Nicosia,airport,OurAirports
1198,Paphos International Airport,Paphos,Cyprus,PFO,LCPH,34.71799850463867,32.48569869995117,41,2,E,Asia/Nicosia,airport,OurAirports
1590,Ben Gurion International Airport,Tel-aviv,Israel,TLV,LLBG,32.01139831542969,34.88669967651367,135,2,E,Asia/Jerusalem,airport,OurAirports
1591,Beersheba (Teyman) Airport,Beer-sheba,Israel,BEV,LLBS,31.287000656128,34.722999572754,656,2,E,Asia/Jerusalem,airport,OurAirports
1594,Eilat Airport,Elat,Israel,ETH,LLET,29.56130027770996,34.96009826660156,42,2,E,Asia/Jerusalem,airport,OurAirports
1595,Ein Yahav Airfield,Eyn-yahav,Israel,EIY,LLEY,30.621700286865234,35.20330047607422,-164,2,E,Asia/Jerusalem,airport,OurAirports
1596,Haifa International Airport,Haifa,Israel,HFA,LLHA,32.80939865112305,35.04309844970703,28,2,E,Asia/Jerusalem,airport,OurAirports
1598,Ben Ya'akov Airport,Rosh Pina,Israel,RPN,LLIB,32.98099899291992,35.5718994140625,922,2,E,Asia/Jerusalem,airport,OurAirports
1600,Bar Yehuda Airfield,Metzada,Israel,MTZ,LLMZ,31.32819938659668,35.38859939575195,-1266,2,E,Asia/Jerusalem,airport,OurAirports
1601,Nevatim Air Base,Nevatim,Israel,VTM,LLNV,31.208299636799996,35.012298584,1330,2,E,Asia/Jerusalem,airport,OurAirports
1602,Ovda International Airport,Ovda,Israel,VDA,LLOV,29.94029998779297,34.93579864501953,1492,2,E,Asia/Jerusalem,airport,OurAirports
1604,Ramon Air Base,Ramon,Israel,MIP,LLRM,30.776100158691406,34.66669845581055,2126,2,E,Asia/Jerusalem,airport,OurAirports
1605,Sde Dov Airport,Tel-aviv,Israel,SDV,LLSD,32.11470031738281,34.78219985961914,43,2,E,Asia/Jerusalem,airport,OurAirports
2048,Herat Airport,Herat,Afghanistan,HEA,OAHR,34.209999084472656,62.22829818725586,3206,4.5,U,Asia/Kabul,airport,OurAirports
2049,Jalalabad Airport,Jalalabad,Afghanistan,JAA,OAJL,34.39979934692383,70.49859619140625,1814,4.5,U,Asia/Kabul,airport,OurAirports
2050,Hamid Karzai International Airport,Kabul,Afghanistan,KBL,OAKB,34.565899,69.212303,5877,4.5,U,Asia/Kabul,airport,OurAirports
2051,Kandahar Airport,Kandahar,Afghanistan,KDH,OAKN,31.505800247192383,65.8478012084961,3337,4.5,U,Asia/Kabul,airport,OurAirports
2052,Maimana Airport,Maimama,Afghanistan,MMZ,OAMN,35.93080139160156,64.76090240478516,2743,4.5,U,Asia/Kabul,airport,OurAirports
2053,Mazar I Sharif Airport,Mazar-i-sharif,Afghanistan,MZR,OAMS,36.70690155029297,67.20970153808594,1284,4.5,U,Asia/Kabul,airport,OurAirports
2054,Shindand Airport,Shindand,Afghanistan,OAH,OASD,33.3913002014,62.2610015869,3773,4.5,U,Asia/Kabul,airport,OurAirports
2056,Konduz Airport,Kunduz,Afghanistan,UND,OAUZ,36.66510009765625,68.91079711914062,1457,4.5,U,Asia/Kabul,airport,OurAirports
2057,Bahrain International Airport,Bahrain,Bahrain,BAH,OBBI,26.27079963684082,50.63359832763672,6,3,U,Asia/Bahrain,airport,OurAirports
2059,Abha Regional Airport,Abha,Saudi Arabia,AHB,OEAB,18.240400314299997,42.65660095210001,6858,3,U,Asia/Riyadh,airport,OurAirports
2060,Al Ahsa Airport,Al-ahsa,Saudi Arabia,HOF,OEAH,25.28529930114746,49.485198974609375,588,3,U,Asia/Riyadh,airport,OurAirports
2061,Al Baha Airport,El-baha,Saudi Arabia,ABT,OEBA,20.2961006165,41.6343002319,5486,3,U,Asia/Riyadh,airport,OurAirports
2062,Bisha Airport,Bisha,Saudi Arabia,BHH,OEBH,19.984399795532227,42.62089920043945,3887,3,U,Asia/Riyadh,airport,OurAirports
2064,King Fahd International Airport,Dammam,Saudi Arabia,DMM,OEDF,26.471200942993164,49.79790115356445,72,3,U,Asia/Riyadh,airport,OurAirports
2065,King Abdulaziz Air Base,Dhahran,Saudi Arabia,DHA,OEDR,26.265399932900003,50.152000427199994,84,3,U,Asia/Riyadh,airport,OurAirports
2066,Jizan Regional Airport,Gizan,Saudi Arabia,GIZ,OEGN,16.901100158691406,42.58580017089844,20,3,U,Asia/Riyadh,airport,OurAirports
2067,Gassim Airport,Gassim,Saudi Arabia,ELQ,OEGS,26.302799224853516,43.77439880371094,2126,3,U,Asia/Riyadh,airport,OurAirports
2068,Gurayat Domestic Airport,Guriat,Saudi Arabia,URY,OEGT,31.412413,37.278898,1672,3,U,Asia/Riyadh,airport,OurAirports
2069,Ha'il Airport,Hail,Saudi Arabia,HAS,OEHL,27.437901,41.686298,3331,3,U,Asia/Riyadh,airport,OurAirports
2070,Jubail Airport,Jubail,Saudi Arabia,QJB,OEJB,27.038999557495117,49.40510177612305,26,3,U,Asia/Riyadh,airport,OurAirports
2072,King Abdulaziz International Airport,Jeddah,Saudi Arabia,JED,OEJN,21.6796,39.156502,48,3,U,Asia/Riyadh,airport,OurAirports
2073,King Khaled Military City Airport,King Khalid Mil.city,Saudi Arabia,KMC,OEKK,27.9009,45.528198,1352,3,U,Asia/Riyadh,airport,OurAirports
2074,Prince Mohammad Bin Abdulaziz Airport,Madinah,Saudi Arabia,MED,OEMA,24.5534,39.705101,2151,3,U,Asia/Riyadh,airport,OurAirports
2075,Nejran Airport,Nejran,Saudi Arabia,EAM,OENG,17.611400604248047,44.4192008972168,3982,3,U,Asia/Riyadh,airport,OurAirports
2076,Al Qaisumah/Hafr Al Batin Airport,Hafr Al-batin,Saudi Arabia,AQI,OEPA,28.335199,46.125099,1174,3,U,Asia/Riyadh,airport,OurAirports
2081,Rafha Domestic Airport,Rafha,Saudi Arabia,RAH,OERF,29.626399993896484,43.4906005859375,1474,3,U,Asia/Riyadh,airport,OurAirports
2082,King Khaled International Airport,Riyadh,Saudi Arabia,RUH,OERK,24.957599639892578,46.69879913330078,2049,3,U,Asia/Riyadh,airport,OurAirports
2084,Arar Domestic Airport,Arar,Saudi Arabia,RAE,OERR,30.906600952148438,41.13819885253906,1813,3,U,Asia/Riyadh,airport,OurAirports
2086,Sharurah Airport,Sharurah,Saudi Arabia,SHW,OESH,17.466899871826172,47.12139892578125,2363,3,U,Asia/Riyadh,airport,OurAirports
2088,Sulayel Airport,Sulayel,Saudi Arabia,SLF,OESL,20.46470069885254,45.619598388671875,2021,3,U,Asia/Riyadh,airport,OurAirports
2089,Tabuk Airport,Tabuk,Saudi Arabia,TUU,OETB,28.3654,36.6189,2551,3,U,Asia/Riyadh,airport,OurAirports
2090,Ta’if Regional Airport,Taif,Saudi Arabia,TIF,OETF,21.483001,40.543442,4848,3,U,Asia/Riyadh,airport,OurAirports
2093,Turaif Domestic Airport,Turaif,Saudi Arabia,TUI,OETR,31.692188,38.731544,2803,3,U,Asia/Riyadh,airport,OurAirports
2095,Al Wajh Domestic Airport,Wejh,Saudi Arabia,EJH,OEWJ,26.19860076904297,36.47639846801758,66,3,U,Asia/Riyadh,airport,OurAirports
2096,Prince Abdulmohsin Bin Abdulaziz Airport,Yenbo,Saudi Arabia,YNB,OEYN,24.144199,38.0634,26,3,U,Asia/Riyadh,airport,OurAirports
2097,Abadan Airport,Abadan,Iran,ABD,OIAA,30.371099472,48.2282981873,10,3.5,E,Asia/Tehran,airport,OurAirports
2098,Dezful Airport,Dezful,Iran,DEF,OIAD,32.434399,48.397598,474,3.5,E,Asia/Tehran,airport,OurAirports
2099,Aghajari Airport,Aghajari,Iran,AKW,OIAG,30.7444,49.6772,88,3.5,E,Asia/Tehran,airport,OurAirports
2100,Gachsaran Airport,Gachsaran,Iran,GCH,OIAH,30.337600708,50.827999115,2414,3.5,E,Asia/Tehran,airport,OurAirports
2102,Omidiyeh Airport,Omidyeh,Iran,OMI,OIAJ,30.8351993560791,49.5349006652832,85,3.5,E,Asia/Tehran,airport,OurAirports
2103,Mahshahr Airport,Bandar Mahshahr,Iran,MRX,OIAM,30.55620002746582,49.15190124511719,8,3.5,E,Asia/Tehran,airport,OurAirports
2104,Ahwaz Airport,Ahwaz,Iran,AWZ,OIAW,31.337400436399996,48.7620010376,66,3.5,E,Asia/Tehran,airport,OurAirports
2105,Abu Musa Island Airport,Abumusa I.,Iran,AEU,OIBA,25.8757,55.033001,23,3.5,E,Asia/Tehran,airport,OurAirports
2106,Bushehr Airport,Bushehr,Iran,BUZ,OIBB,28.9447994232,50.8345985413,68,3.5,E,Asia/Tehran,airport,OurAirports
2109,Kish International Airport,Kish Island,Iran,KIH,OIBK,26.5261993408,53.980201721200004,101,3.5,E,Asia/Tehran,airport,OurAirports
2110,Bandar Lengeh Airport,Bandar Lengeh,Iran,BDH,OIBL,26.531999588,54.824798584,67,3.5,E,Asia/Tehran,airport,OurAirports
2111,Khark Island Airport,Khark Island,Iran,KHK,OIBQ,29.260299682617188,50.32389831542969,17,3.5,E,Asia/Tehran,airport,OurAirports
2112,Sirri Island Airport,Siri Island,Iran,SXI,OIBS,25.908899307250977,54.539398193359375,43,3.5,E,Asia/Tehran,airport,OurAirports
2113,Lavan Island Airport,Lavan Island,Iran,LVP,OIBV,26.810300827026367,53.356300354003906,76,3.5,E,Asia/Tehran,airport,OurAirports
2114,Shahid Ashrafi Esfahani Airport,Bakhtaran,Iran,KSH,OICC,34.3459014893,47.1581001282,4307,3.5,E,Asia/Tehran,airport,OurAirports
2117,Sanandaj Airport,Sanandaj,Iran,SDG,OICS,35.24589920043945,47.00920104980469,4522,3.5,E,Asia/Tehran,airport,OurAirports
2118,Hesa Airport,Daran,Iran,IFH,OIFE,32.92890167236328,51.561100006103516,5256,3.5,E,Asia/Tehran,airport,OurAirports
2120,Kashan Airport,Kashan,Iran,KKS,OIFK,33.895302,51.577,3465,3.5,E,Asia/Tehran,airport,OurAirports
2121,Esfahan Shahid Beheshti International Airport,Esfahan,Iran,IFN,OIFM,32.75080108642578,51.86130142211914,5059,3.5,E,Asia/Tehran,airport,OurAirports
2123,Sardar-e-Jangal Airport,Rasht,Iran,RAS,OIGG,37.323333,49.617778,-40,3.5,E,Asia/Tehran,airport,OurAirports
2125,Arak Airport,Arak,Iran,AJK,OIHR,34.138099670410156,49.8473014831543,5440,3.5,E,Asia/Tehran,airport,OurAirports
2131,Mehrabad International Airport,Teheran,Iran,THR,OIII,35.68920135498047,51.31340026855469,3962,3.5,E,Asia/Tehran,airport,OurAirports
2132,Qazvin Airport,Ghazvin,Iran,GZW,OIIK,36.240101,50.0471,4184,3.5,E,Asia/Tehran,airport,OurAirports
2134,Bandar Abbas International Airport,Bandar Abbas,Iran,BND,OIKB,27.218299865722656,56.37779998779297,22,3.5,E,Asia/Tehran,airport,OurAirports
2135,Jiroft Airport,Jiroft,Iran,JYR,OIKJ,28.726900100699996,57.67029953,2663,3.5,E,Asia/Tehran,airport,OurAirports
2136,Kerman Airport,Kerman,Iran,KER,OIKK,30.274400711099997,56.9510993958,5741,3.5,E,Asia/Tehran,airport,OurAirports
2138,Havadarya Airport,Bandar Abbas,Iran,HDR,OIKP,27.158300399780273,56.17250061035156,19,3.5,E,Asia/Tehran,airport,OurAirports
2141,Sirjan Airport,Sirjan,Iran,SYJ,OIKY,29.550899505615234,55.672698974609375,5846,3.5,E,Asia/Tehran,airport,OurAirports
2142,Birjand Airport,Birjand,Iran,XBJ,OIMB,32.898101806640625,59.2661018371582,4952,3.5,E,Asia/Tehran,airport,OurAirports
2143,Sarakhs Airport,Sarakhs,Iran,CKT,OIMC,36.50120162963867,61.06489944458008,945,3.5,E,Asia/Tehran,airport,OurAirports
2144,Shahroud Airport,Emam Shahr,Iran,RUD,OIMJ,36.4253005981,55.104198455799995,4215,3.5,E,Asia/Tehran,airport,OurAirports
2147,Tabas Airport,Tabas,Iran,TCX,OIMT,33.6678009033,56.8927001953,2312,3.5,E,Asia/Tehran,airport,OurAirports
2148,Kalaleh Airport,Kalaleh,Iran,KLM,OINE,37.3833007812,55.4519996643,425,3.5,E,Asia/Tehran,airport,OurAirports
2151,Ramsar Airport,Ramsar,Iran,RZR,OINR,36.9099006652832,50.67959976196289,-70,3.5,E,Asia/Tehran,airport,OurAirports
2153,Fasa Airport,Fasa,Iran,FAZ,OISF,28.891799926757812,53.72330093383789,4261,3.5,E,Asia/Tehran,airport,OurAirports
2154,Jahrom Airport,Jahrom,Iran,JAR,OISJ,28.586700439499996,53.5791015625,3358,3.5,E,Asia/Tehran,airport,OurAirports
2156,Lamerd Airport,Lamerd,Iran,LFM,OISR,27.3726997375,53.18880081179999,1337,3.5,E,Asia/Tehran,airport,OurAirports
2157,Shiraz Shahid Dastghaib International Airport,Shiraz,Iran,SYZ,OISS,29.539199829101562,52.58980178833008,4920,3.5,E,Asia/Tehran,airport,OurAirports
2158,Khoy Airport,Khoy,Iran,KHY,OITK,38.4275016784668,44.97359848022461,3981,3.5,E,Asia/Tehran,airport,OurAirports
2162,Tabriz International Airport,Tabriz,Iran,TBZ,OITT,38.1338996887207,46.23500061035156,4459,3.5,E,Asia/Tehran,airport,OurAirports
2163,Zanjan Airport,Zanjan,Iran,JWN,OITZ,36.7737007141,48.3594017029,5382,3.5,E,Asia/Tehran,airport,OurAirports
2164,Shahid Sadooghi Airport,Yazd,Iran,AZD,OIYY,31.9048995972,54.2765007019,4054,3.5,E,Asia/Tehran,airport,OurAirports
2165,Zabol Airport,Zabol,Iran,ACZ,OIZB,31.09830093383789,61.54389953613281,1628,3.5,E,Asia/Tehran,airport,OurAirports
2166,Konarak Airport,Chah Bahar,Iran,ZBR,OIZC,25.443300247199996,60.3820991516,43,3.5,E,Asia/Tehran,airport,OurAirports
2167,Zahedan International Airport,Zahedan,Iran,ZAH,OIZH,29.47570037841797,60.90620040893555,4564,3.5,E,Asia/Tehran,airport,OurAirports
2168,Iran Shahr Airport,Iran Shahr,Iran,IHR,OIZI,27.2360992432,60.7200012207,2040,3.5,E,Asia/Tehran,airport,OurAirports
2170,Queen Alia International Airport,Amman,Jordan,AMM,OJAI,31.7226009369,35.9931983948,2395,2,E,Asia/Amman,airport,OurAirports
2171,Amman-Marka International Airport,Amman,Jordan,ADJ,OJAM,31.972700119018555,35.991600036621094,2555,2,E,Asia/Amman,airport,OurAirports
2172,Aqaba King Hussein International Airport,Aqaba,Jordan,AQJ,OJAQ,29.611600875854492,35.01810073852539,175,2,E,Asia/Amman,airport,OurAirports
2175,King Hussein Air College,Mafraq,Jordan,OMF,OJMF,32.3564,36.259201,2240,2,E,Asia/Amman,airport,OurAirports
2176,Kuwait International Airport,Kuwait,Kuwait,KWI,OKBK,29.226600646972656,47.96889877319336,206,3,U,Asia/Kuwait,airport,OurAirports
2177,Beirut Rafic Hariri International Airport,Beirut,Lebanon,BEY,OLBA,33.820899963378906,35.488399505615234,87,2,E,Asia/Beirut,airport,OurAirports
2178,Rene Mouawad Air Base,Kleiat,Lebanon,KYE,OLKA,34.589298248291016,36.01129913330078,75,2,E,Asia/Beirut,airport,OurAirports
2179,Abu Dhabi International Airport,Abu Dhabi,United Arab Emirates,AUH,OMAA,24.433000564575195,54.651100158691406,88,4,U,Asia/Dubai,airport,OurAirports
2180,Bateen Airport,Abu Dhabi,United Arab Emirates,AZI,OMAD,24.428300857543945,54.458099365234375,16,4,U,Asia/Dubai,airport,OurAirports
2184,Al Dhafra Air Base,Abu Dhabi,United Arab Emirates,DHF,OMAM,24.248199462900004,54.547698974599996,77,4,U,Asia/Dubai,airport,OurAirports
2188,Dubai International Airport,Dubai,United Arab Emirates,DXB,OMDB,25.2527999878,55.3643989563,62,4,U,Asia/Dubai,airport,OurAirports
2189,Fujairah International Airport,Fujeirah,United Arab Emirates,FJR,OMFJ,25.112199783325195,56.32400131225586,152,4,U,Asia/Dubai,airport,OurAirports
2190,Ras Al Khaimah International Airport,Ras Al Khaimah,United Arab Emirates,RKT,OMRK,25.613500595092773,55.93880081176758,102,4,U,Asia/Dubai,airport,OurAirports
2191,Sharjah International Airport,Sharjah,United Arab Emirates,SHJ,OMSJ,25.32859992980957,55.5172004699707,111,4,U,Asia/Dubai,airport,OurAirports
2192,Khasab Air Base,Khasab,Oman,KHS,OOKB,26.17099952697754,56.2406005859375,100,4,U,Asia/Muscat,airport,OurAirports
2193,Masirah Air Base,Masirah,Oman,MSH,OOMA,20.675399780273438,58.890499114990234,64,4,U,Asia/Muscat,airport,OurAirports
2194,Muscat International Airport,Muscat,Oman,MCT,OOMS,23.593299865722656,58.284400939941406,48,4,U,Asia/Muscat,airport,OurAirports
2195,Salalah Airport,Salalah,Oman,SLL,OOSA,17.038700103759766,54.09130096435547,73,4,U,Asia/Muscat,airport,OurAirports
2196,Thumrait Air Base,Thumrait,Oman,TTH,OOTH,17.666000366210938,54.024600982666016,1570,4,U,Asia/Muscat,airport,OurAirports
2197,Bhagatanwala Airport,Bhagtanwala,Pakistan,BHW,OPBG,32.056098938,72.94840240479999,600,5,N,Asia/Karachi,airport,OurAirports
2202,Faisalabad International Airport,Faisalabad,Pakistan,LYP,OPFA,31.364999771118164,72.99479675292969,591,5,N,Asia/Karachi,airport,OurAirports
2203,Gwadar International Airport,Gwadar,Pakistan,GWD,OPGD,25.233299255371094,62.329498291015625,36,5,N,Asia/Karachi,airport,OurAirports
2204,Gilgit Airport,Gilgit,Pakistan,GIL,OPGT,35.918800354003906,74.33360290527344,4796,5,N,Asia/Karachi,airport,OurAirports
2205,Shahbaz Air Base,Jacobsbad,Pakistan,JAG,OPJA,28.28420066833496,68.44969940185547,185,5,N,Asia/Karachi,airport,OurAirports
2206,Jinnah International Airport,Karachi,Pakistan,KHI,OPKC,24.9065,67.160797,100,5,N,Asia/Karachi,airport,OurAirports
2207,Alama Iqbal International Airport,Lahore,Pakistan,LHE,OPLA,31.5216007232666,74.40360260009766,712,5,N,Asia/Karachi,airport,OurAirports
2209,Mangla Airport,Mangla,Pakistan,XJM,OPMA,33.05009841918945,73.63839721679688,902,5,N,Asia/Karachi,airport,OurAirports
2210,Muzaffarabad Airport,Muzaffarabad,Pakistan,MFG,OPMF,34.3390007019043,73.50859832763672,2691,5,N,Asia/Karachi,airport,OurAirports
2211,Mianwali Air Base,Mianwali,Pakistan,MWD,OPMI,32.5630989074707,71.5707015991211,690,5,N,Asia/Karachi,airport,OurAirports
2212,Moenjodaro Airport,Moenjodaro,Pakistan,MJD,OPMJ,27.3351993560791,68.14309692382812,154,5,N,Asia/Karachi,airport,OurAirports
2214,Multan International Airport,Multan,Pakistan,MUX,OPMT,30.20319938659668,71.41909790039062,403,5,N,Asia/Karachi,airport,OurAirports
2215,Shaheed Benazirabad Airport,Nawabshah,Pakistan,WNS,OPNH,26.2194,68.390099,95,5,N,Asia/Karachi,airport,OurAirports
2217,Panjgur Airport,Panjgur,Pakistan,PJG,OPPG,26.954500198364258,64.13249969482422,3289,5,N,Asia/Karachi,airport,OurAirports
2218,Pasni Airport,Pasni,Pakistan,PSI,OPPI,25.29050064086914,63.34510040283203,33,5,N,Asia/Karachi,airport,OurAirports
2219,Peshawar International Airport,Peshawar,Pakistan,PEW,OPPS,33.993900299072266,71.51460266113281,1158,5,N,Asia/Karachi,airport,OurAirports
2221,Quetta International Airport,Quetta,Pakistan,UET,OPQT,30.251399993896484,66.93779754638672,5267,5,N,Asia/Karachi,airport,OurAirports
2222,Shaikh Zaid Airport,Rahim Yar Khan,Pakistan,RYK,OPRK,28.383899688720703,70.27960205078125,271,5,N,Asia/Karachi,airport,OurAirports
2225,Rawalakot Airport,Rawala Kot,Pakistan,RAZ,OPRT,33.849700927734375,73.79810333251953,5479,5,N,Asia/Karachi,airport,OurAirports
2227,Sukkur Airport,Sukkur,Pakistan,SKZ,OPSK,27.722000122070312,68.79170227050781,196,5,N,Asia/Karachi,airport,OurAirports
2228,Saidu Sharif Airport,Saidu Sharif,Pakistan,SDT,OPSS,34.8135986328125,72.35279846191406,3183,5,N,Asia/Karachi,airport,OurAirports
2229,Sui Airport,Sui,Pakistan,SUL,OPSU,28.645099639892578,69.1769027709961,763,5,N,Asia/Karachi,airport,OurAirports
2230,Talhar Airport,Talhar,Pakistan,BDN,OPTH,24.84149932861328,68.8384017944336,28,5,N,Asia/Karachi,airport,OurAirports
2232,Wana Airport,Wana,Pakistan,WAF,OPWN,32.3046989440918,69.57039642333984,4550,5,N,Asia/Karachi,airport,OurAirports
2233,Zhob Airport,Zhob,Pakistan,PZH,OPZB,31.358400344848633,69.4636001586914,4728,5,N,Asia/Karachi,airport,OurAirports
2234,Basrah International Airport,Basrah,Iraq,BSR,ORMM,30.549100875854492,47.66210174560547,11,3,U,Asia/Baghdad,airport,OurAirports
2235,Aleppo International Airport,Aleppo,Syria,ALP,OSAP,36.18069839477539,37.22439956665039,1276,2,E,Asia/Damascus,airport,OurAirports
2236,Damascus International Airport,Damascus,Syria,DAM,OSDI,33.4114990234375,36.51559829711914,2020,2,E,Asia/Damascus,airport,OurAirports
2237,Deir ez-Zor Air Base,Deire Zor,Syria,DEZ,OSDZ,35.2854,40.175999,700,2,E,Asia/Damascus,airport,OurAirports
2239,Bassel Al-Assad International Airport,Latakia,Syria,LTK,OSLK,35.401100158691406,35.948699951171875,157,2,E,Asia/Damascus,airport,OurAirports
2240,Palmyra Airport,Palmyra,Syria,PMS,OSPR,34.5574,38.316898,1322,2,E,Asia/Damascus,airport,OurAirports
2241,Doha International Airport,Doha,Qatar,DIA,OTBD,25.261101,51.565102,35,3,U,Asia/Qatar,airport,OurAirports
2259,Kinmen Airport,Kinmen,Taiwan,KNH,RCBS,24.4279,118.359001,93,8,U,Asia/Taipei,airport,OurAirports
2262,Taitung Airport,Fengnin,Taiwan,TTT,RCFN,22.7549991607666,121.10199737548828,143,8,U,Asia/Taipei,airport,OurAirports
2263,Lyudao Airport,Green Island,Taiwan,GNI,RCGI,22.673900604248047,121.46600341796875,28,8,U,Asia/Taipei,airport,OurAirports
2264,Kaohsiung International Airport,Kaohsiung,Taiwan,KHH,RCKH,22.57710075378418,120.3499984741211,31,8,U,Asia/Taipei,airport,OurAirports
2265,Chiayi Airport,Chiayi,Taiwan,CYI,RCKU,23.46179962158203,120.39299774169922,85,8,U,Asia/Taipei,airport,OurAirports
2267,Lanyu Airport,Lanyu,Taiwan,KYD,RCLY,22.027000427246094,121.53500366210938,44,8,U,Asia/Taipei,airport,OurAirports
2268,Taichung Ching Chuang Kang Airport,Taichung,Taiwan,RMQ,RCMQ,24.264699935913086,120.62100219726562,663,8,N,Asia/Taipei,airport,OurAirports
2270,Tainan Airport,Tainan,Taiwan,TNN,RCNN,22.95039939880371,120.20600128173828,63,8,U,Asia/Taipei,airport,OurAirports
2271,Hsinchu Air Base,Hsinchu,Taiwan,HSZ,RCPO,24.8180007935,120.939002991,26,8,U,Asia/Taipei,airport,OurAirports
2272,Makung Airport,Makung,Taiwan,MZG,RCQC,23.568700790405273,119.62799835205078,103,8,U,Asia/Taipei,airport,OurAirports
2274,Pingtung North Airport,Pingtung,Taiwan,PIF,RCSQ,22.700199127197266,120.48200225830078,97,8,U,Asia/Taipei,airport,OurAirports
2275,Taipei Songshan Airport,Taipei,Taiwan,TSA,RCSS,25.069400787353516,121.552001953125,18,8,U,Asia/Taipei,airport,OurAirports
2276,Taiwan Taoyuan International Airport,Taipei,Taiwan,TPE,RCTP,25.0777,121.233002,106,8,U,Asia/Taipei,airport,OurAirports
2277,Wang-an Airport,Wang An,Taiwan,WOT,RCWA,23.367372512817383,119.50277709960938,115,8,U,Asia/Taipei,airport,OurAirports
2278,Hualien Airport,Hualien,Taiwan,HUN,RCYU,24.023099899291992,121.61799621582031,52,8,U,Asia/Taipei,airport,OurAirports
2279,Narita International Airport,Tokyo,Japan,NRT,RJAA,35.7647018433,140.386001587,141,9,U,Asia/Tokyo,airport,OurAirports
2280,Matsumoto Airport,Matsumoto,Japan,MMJ,RJAF,36.16680145263672,137.92300415039062,2182,9,U,Asia/Tokyo,airport,OurAirports
2281,Hyakuri Airport,Ibaraki,Japan,IBR,RJAH,36.181098938,140.414993286,105,9,U,Asia/Tokyo,airport,OurAirports
2282,Minami Torishima Airport,Minami Tori Shima,Japan,MUS,RJAM,24.2896995544,153.979003906,22,9,U,Asia/Tokyo,airport,OurAirports
2283,Iwo Jima Airport,Iwojima,Japan,IWO,RJAW,24.784000396728516,141.322998046875,384,9,U,Asia/Tokyo,airport,OurAirports
2284,Nanki Shirahama Airport,Nanki-shirahama,Japan,SHM,RJBD,33.6622009277,135.363998413,298,9,U,Asia/Tokyo,airport,OurAirports
2286,Tokachi-Obihiro Airport,Obihiro,Japan,OBO,RJCB,42.7332992554,143.216995239,505,9,U,Asia/Tokyo,airport,OurAirports
2287,New Chitose Airport,Sapporo,Japan,CTS,RJCC,42.77519989013672,141.69200134277344,82,9,U,Asia/Tokyo,airport,OurAirports
2288,Hakodate Airport,Hakodate,Japan,HKD,RJCH,41.7700004578,140.822006226,151,9,U,Asia/Tokyo,airport,OurAirports
2290,Memanbetsu Airport,Memanbetsu,Japan,MMB,RJCM,43.8805999756,144.164001465,135,9,U,Asia/Tokyo,airport,OurAirports
2291,Nakashibetsu Airport,Nakashibetsu,Japan,SHB,RJCN,43.5774993896,144.960006714,234,9,U,Asia/Tokyo,airport,OurAirports
2294,Wakkanai Airport,Wakkanai,Japan,WKJ,RJCW,45.4042015076,141.800994873,30,9,U,Asia/Tokyo,airport,OurAirports
2295,Iki Airport,Iki,Japan,IKI,RJDB,33.7490005493,129.785003662,41,9,U,Asia/Tokyo,airport,OurAirports
2296,Yamaguchi Ube Airport,Yamaguchi,Japan,UBJ,RJDC,33.930000305200004,131.279006958,23,9,U,Asia/Tokyo,airport,OurAirports
2297,Tsushima Airport,Tsushima,Japan,TSJ,RJDT,34.2849006653,129.330993652,213,9,U,Asia/Tokyo,airport,OurAirports
2298,Monbetsu Airport,Monbetsu,Japan,MBE,RJEB,44.303901672399995,143.404006958,80,9,U,Asia/Tokyo,airport,OurAirports
2299,Asahikawa Airport,Asahikawa,Japan,AKJ,RJEC,43.670799255371094,142.44700622558594,721,9,U,Asia/Tokyo,airport,OurAirports
2300,Okushiri Airport,Okushiri,Japan,OIR,RJEO,42.0717010498,139.432998657,161,9,U,Asia/Tokyo,airport,OurAirports
2301,Rishiri Airport,Rishiri Island,Japan,RIS,RJER,45.2420005798,141.186004639,112,9,U,Asia/Tokyo,airport,OurAirports
2303,Yakushima Airport,Yakushima,Japan,KUM,RJFC,30.3855991364,130.658996582,124,9,U,Asia/Tokyo,airport,OurAirports
2304,Fukue Airport,Fukue,Japan,FUJ,RJFE,32.66630172729492,128.83299255371094,273,9,U,Asia/Tokyo,airport,OurAirports
2305,Fukuoka Airport,Fukuoka,Japan,FUK,RJFF,33.585899353027344,130.4510040283203,32,9,U,Asia/Tokyo,airport,OurAirports
2306,New Tanegashima Airport,Tanegashima,Japan,TNE,RJFG,30.605100631699997,130.990997314,768,9,U,Asia/Tokyo,airport,OurAirports
2307,Kagoshima Airport,Kagoshima,Japan,KOJ,RJFK,31.80340003967285,130.718994140625,906,9,U,Asia/Tokyo,airport,OurAirports
2308,Miyazaki Airport,Miyazaki,Japan,KMI,RJFM,31.877199173,131.449005127,20,9,U,Asia/Tokyo,airport,OurAirports
2310,Oita Airport,Oita,Japan,OIT,RJFO,33.479400634799994,131.736999512,19,9,U,Asia/Tokyo,airport,OurAirports
2311,Kitakyūshū Airport,Kitakyushu,Japan,KKJ,RJFR,33.8459014893,131.035003662,21,9,U,Asia/Tokyo,airport,OurAirports
2312,Kumamoto Airport,Kumamoto,Japan,KMJ,RJFT,32.83729934692383,130.85499572753906,642,9,U,Asia/Tokyo,airport,OurAirports
2313,Nagasaki Airport,Nagasaki,Japan,NGS,RJFU,32.916900634799994,129.914001465,15,9,U,Asia/Tokyo,airport,OurAirports
2316,Amami Airport,Amami,Japan,ASJ,RJKA,28.430599212646484,129.71299743652344,27,9,U,Asia/Tokyo,airport,OurAirports
2317,Okierabu Airport,Okierabu,Japan,OKE,RJKB,27.4255008698,128.701004028,101,9,U,Asia/Tokyo,airport,OurAirports
2318,Tokunoshima Airport,Tokunoshima,Japan,TKN,RJKN,27.83639907836914,128.88099670410156,17,9,U,Asia/Tokyo,airport,OurAirports
2319,Fukui Airport,Fukui,Japan,FKJ,RJNF,36.1427993774,136.223999023,19,9,U,Asia/Tokyo,airport,OurAirports
2320,Gifu Airport,Gifu,Japan,QGU,RJNG,35.394100189208984,136.8699951171875,128,9,U,Asia/Tokyo,airport,OurAirports
2322,Komatsu Airport,Kanazawa,Japan,KMQ,RJNK,36.39459991455078,136.40699768066406,36,9,U,Asia/Tokyo,airport,OurAirports
2323,Oki Airport,Oki Island,Japan,OKI,RJNO,36.18109893798828,133.3249969482422,311,9,U,Asia/Tokyo,airport,OurAirports
2324,Toyama Airport,Toyama,Japan,TOY,RJNT,36.64830017089844,137.18800354003906,95,9,U,Asia/Tokyo,airport,OurAirports
2326,Hiroshima Airport,Hiroshima,Japan,HIJ,RJOA,34.4361000061,132.919006348,1088,9,U,Asia/Tokyo,airport,OurAirports
2327,Okayama Airport,Okayama,Japan,OKJ,RJOB,34.7569007874,133.854995728,806,9,U,Asia/Tokyo,airport,OurAirports
2328,Izumo Airport,Izumo,Japan,IZO,RJOC,35.4136009216,132.88999939,15,9,U,Asia/Tokyo,airport,OurAirports
2330,Miho Yonago Airport,Miho,Japan,YGJ,RJOH,35.4921989440918,133.23599243164062,20,9,U,Asia/Tokyo,airport,OurAirports
2332,Kōchi Ryōma Airport,Kochi,Japan,KCZ,RJOK,33.546101,133.669006,42,9,U,Asia/Tokyo,airport,OurAirports
2333,Matsuyama Airport,Matsuyama,Japan,MYJ,RJOM,33.82720184326172,132.6999969482422,25,9,U,Asia/Tokyo,airport,OurAirports
2334,Osaka International Airport,Osaka,Japan,ITM,RJOO,34.785499572753906,135.43800354003906,50,9,U,Asia/Tokyo,airport,OurAirports
2335,Tottori Airport,Tottori,Japan,TTJ,RJOR,35.5301017761,134.167007446,65,9,U,Asia/Tokyo,airport,OurAirports
2336,Tokushima Airport/JMSDF Air Base,Tokushima,Japan,TKS,RJOS,34.132801,134.606995,26,9,U,Asia/Tokyo,airport,OurAirports
2337,Takamatsu Airport,Takamatsu,Japan,TAK,RJOT,34.214199066199996,134.01600647,607,9,U,Asia/Tokyo,airport,OurAirports
2340,Aomori Airport,Aomori,Japan,AOJ,RJSA,40.73469924926758,140.6909942626953,664,9,U,Asia/Tokyo,airport,OurAirports
2341,Yamagata Airport,Yamagata,Japan,GAJ,RJSC,38.411899566699994,140.371002197,353,9,U,Asia/Tokyo,airport,OurAirports
2342,Sado Airport,Sado,Japan,SDS,RJSD,38.0601997375,138.414001465,88,9,U,Asia/Tokyo,airport,OurAirports
2343,Hachinohe Airport,Hachinoe,Japan,HHE,RJSH,40.556400299072266,141.46600341796875,152,9,U,Asia/Tokyo,airport,OurAirports
2344,Hanamaki Airport,Hanamaki,Japan,HNA,RJSI,39.4286003112793,141.13499450683594,297,9,U,Asia/Tokyo,airport,OurAirports
2345,Akita Airport,Akita,Japan,AXT,RJSK,39.6156005859375,140.218994140625,313,9,U,Asia/Tokyo,airport,OurAirports
2346,Misawa Air Base,Misawa,Japan,MSJ,RJSM,40.703201293899994,141.367996216,119,9,U,Asia/Tokyo,airport,OurAirports
2347,Sendai Airport,Sendai,Japan,SDJ,RJSS,38.1397018433,140.917007446,15,9,U,Asia/Tokyo,airport,OurAirports
2350,Atsugi Naval Air Facility,Atsugi,Japan,NJA,RJTA,35.4546012878418,139.4499969482422,205,9,U,Asia/Tokyo,airport,OurAirports
2352,Hachijojima Airport,Hachijojima,Japan,HAC,RJTH,33.1150016785,139.785995483,303,9,U,Asia/Tokyo,airport,OurAirports
2356,Oshima Airport,Oshima,Japan,OIM,RJTO,34.782001495399996,139.36000061,130,9,U,Asia/Tokyo,airport,OurAirports
2359,Tokyo Haneda International Airport,Tokyo,Japan,HND,RJTT,35.552299,139.779999,35,9,U,Asia/Tokyo,airport,OurAirports
2360,Yokota Air Base,Yokota,Japan,OKO,RJTY,35.74850082397461,139.34800720214844,463,9,U,Asia/Tokyo,airport,OurAirports
2361,Gwangju Airport,Kwangju,South Korea,KWJ,RKJJ,35.123173,126.805444,39,9,U,Asia/Seoul,airport,OurAirports
2364,Jeon Ju Airport (G-703),Jhunju,South Korea,CHN,RKJU,35.87808,127.119112,96,9,U,Asia/Seoul,airport,OurAirports
2365,Yeosu Airport,Yeosu,South Korea,RSU,RKJY,34.84230041503906,127.61699676513672,53,9,U,Asia/Seoul,airport,OurAirports
2367,Gangneung Airport (K-18),Kangnung,South Korea,KAG,RKNN,37.753601,128.943915,35,9,U,Asia/Seoul,airport,OurAirports
2370,Jeju International Airport,Cheju,South Korea,CJU,RKPC,33.51129913330078,126.49299621582031,118,9,U,Asia/Seoul,airport,OurAirports
2371,Jinhae Airbase/Airport (G-813/K-10),Chinhae,South Korea,CHF,RKPE,35.140248,128.696229,8,9,U,Asia/Seoul,airport,OurAirports
2372,Gimhae International Airport,Busan,South Korea,PUS,RKPK,35.1795005798,128.93800354,6,9,U,Asia/Seoul,airport,OurAirports
2374,Ulsan Airport,Ulsan,South Korea,USN,RKPU,35.59349823,129.352005005,45,9,U,Asia/Seoul,airport,OurAirports
2376,Seoul Air Base (K-16),Seoul East,South Korea,SSN,RKSM,37.444744,127.112718,92,9,U,Asia/Seoul,airport,OurAirports
2377,Osan Air Base,Osan,South Korea,OSN,RKSO,37.090599,127.029999,38,9,U,Asia/Seoul,airport,OurAirports
2378,Gimpo International Airport,Seoul,South Korea,GMP,RKSS,37.5583,126.791,59,9,U,Asia/Seoul,airport,OurAirports
2379,Suwon Airport,Suwon,South Korea,SWU,RKSW,37.23939895629883,127.00700378417969,88,9,U,Asia/Seoul,airport,OurAirports
2380,Pohang Airport (G-815/K-3),Pohang,South Korea,KPO,RKTH,35.987955,129.420383,70,9,U,Asia/Seoul,airport,OurAirports
2381,Daegu Airport,Taegu,South Korea,TAE,RKTN,35.896872,128.65531,116,9,U,Asia/Seoul,airport,OurAirports
2383,Yecheon Airbase,Yechon,South Korea,YEC,RKTY,36.630373,128.34971,354,9,U,Asia/Seoul,airport,OurAirports
2384,Naha Airport,Okinawa,Japan,OKA,ROAH,26.1958007812,127.646003723,12,9,N,Asia/Tokyo,airport,OurAirports
2386,Kadena Air Base,Kadena,Japan,DNA,RODN,26.3556,127.767998,143,9,U,Asia/Tokyo,airport,OurAirports
2387,New Ishigaki Airport,Ishigaki,Japan,ISG,ROIG,24.396389,124.245,102,9,U,Asia/Tokyo,airport,OurAirports
2388,Kumejima Airport,Kumejima,Japan,UEO,ROKJ,26.363500595092773,126.71399688720703,23,9,U,Asia/Tokyo,airport,OurAirports
2389,Minami-Daito Airport,Minami Daito,Japan,MMD,ROMD,25.8465003967,131.263000488,167,9,U,Asia/Tokyo,airport,OurAirports
2390,Miyako Airport,Miyako,Japan,MMY,ROMY,24.782800674399997,125.294998169,150,9,U,Asia/Tokyo,airport,OurAirports
2391,Kitadaito Airport,Kitadaito,Japan,KTD,RORK,25.9447002411,131.32699585,80,9,U,Asia/Tokyo,airport,OurAirports
2392,Shimojishima Airport,Shimojishima,Japan,SHI,RORS,24.8267002106,125.144996643,54,9,U,Asia/Tokyo,airport,OurAirports
2393,Tarama Airport,Tarama,Japan,TRA,RORT,24.653900146499996,124.675003052,36,9,U,Asia/Tokyo,airport,OurAirports
2394,Yoron Airport,Yoron,Japan,RNJ,RORY,27.0440006256,128.401992798,52,9,U,Asia/Tokyo,airport,OurAirports
2396,Yonaguni Airport,Yonaguni Jima,Japan,OGN,ROYN,24.466899871826172,122.97799682617188,70,9,U,Asia/Tokyo,airport,OurAirports
2397,Ninoy Aquino International Airport,Manila,Philippines,MNL,RPLL,14.5086,121.019997,75,8,N,Asia/Manila,airport,OurAirports
2399,Awang Airport,Cotabato,Philippines,CBO,RPMC,7.1652398109436035,124.20999908447266,189,8,N,Asia/Manila,airport,OurAirports
2401,Pagadian Airport,Pagadian,Philippines,PAG,RPMP,7.83073144787,123.461179733,5,8,N,Asia/Manila,airport,OurAirports
2402,General Santos International Airport,Romblon,Philippines,GES,RPMR,6.05800008774,125.096000671,505,8,N,Asia/Manila,airport,OurAirports
2404,Zamboanga International Airport,Zamboanga,Philippines,ZAM,RPMZ,6.922420024871826,122.05999755859375,33,8,N,Asia/Manila,airport,OurAirports
2405,Loakan Airport,Baguio,Philippines,BAG,RPUB,16.375099182128906,120.62000274658203,4251,8,N,Asia/Manila,airport,OurAirports
2406,Daet Airport,Daet,Philippines,DTE,RPUD,14.129199981689453,122.9800033569336,10,8,N,Asia/Manila,airport,OurAirports
2409,San Jose Airport,San Jose,Philippines,SJI,RPUH,12.361499786399998,121.04699707,14,8,N,Asia/Manila,airport,OurAirports
2411,Mamburao Airport,Mamburao,Philippines,MBO,RPUM,13.208100318908691,120.6050033569336,13,8,N,Asia/Manila,airport,OurAirports
2415,Dr.Juan C. Angara Airport,Baler,Philippines,BQA,RPUR,15.729309,121.500034,108,8,N,Asia/Manila,airport,OurAirports
2422,Daniel Z. Romualdez Airport,Tacloban,Philippines,TAC,RPVA,11.228035,125.027761,10,8,N,Asia/Manila,airport,OurAirports
2423,Bacolod-Silay Airport,Bacolod,Philippines,BCD,RPVB,10.7764,123.014999,82,8,N,Asia/Manila,airport,OurAirports
2425,Sibulan Airport,Dumaguete,Philippines,DGT,RPVD,9.3337097168,123.300003052,15,8,N,Asia/Manila,airport,OurAirports
2426,Godofredo P. Ramos Airport,Caticlan,Philippines,MPH,RPVE,11.9245,121.954002,7,8,N,Asia/Manila,airport,OurAirports
2429,Iloilo International Airport,Iloilo,Philippines,ILO,RPVI,10.833017,122.493358,27,8,N,Asia/Manila,airport,OurAirports
2430,Kalibo International Airport,Kalibo,Philippines,KLO,RPVK,11.679400444,122.375999451,14,8,N,Asia/Manila,airport,OurAirports
2433,Puerto Princesa Airport,Puerto Princesa,Philippines,PPS,RPVP,9.742119789123535,118.75900268554688,71,8,N,Asia/Manila,airport,OurAirports
2435,Evelio Javier Airport,San Jose,Philippines,EUQ,RPVS,10.765999794,121.932998657,23,8,N,Asia/Manila,airport,OurAirports
2908,Almaty Airport,Alma-ata,Kazakhstan,ALA,UAAA,43.35210037231445,77.04049682617188,2234,6,U,Asia/Qyzylorda,airport,OurAirports
2909,Balkhash Airport,Balkhash,Kazakhstan,BXH,UAAH,46.8932991027832,75.00499725341797,1446,6,U,Asia/Qyzylorda,airport,OurAirports
2910,Astana International Airport,Tselinograd,Kazakhstan,TSE,UACC,51.02220153808594,71.46690368652344,1165,6,U,Asia/Qyzylorda,airport,OurAirports
2911,Taraz Airport,Dzhambul,Kazakhstan,DMB,UADD,42.853599548339844,71.30359649658203,2184,6,U,Asia/Qyzylorda,airport,OurAirports
2912,Manas International Airport,Bishkek,Kyrgyzstan,FRU,UAFM,43.0612983704,74.4776000977,2058,6,U,Asia/Bishkek,airport,OurAirports
2913,Osh Airport,Osh,Kyrgyzstan,OSS,UAFO,40.6090011597,72.793296814,2927,6,U,Asia/Bishkek,airport,OurAirports
2914,Shymkent Airport,Chimkent,Kazakhstan,CIT,UAII,42.364200592041016,69.47889709472656,1385,6,U,Asia/Qyzylorda,airport,OurAirports
2916,Uralsk Airport,Uralsk,Kazakhstan,URA,UARR,51.15079879760742,51.54309844970703,125,5,U,Asia/Oral,airport,OurAirports
2917,Pavlodar Airport,Pavlodar,Kazakhstan,PWQ,UASP,52.19499969482422,77.07389831542969,410,6,U,Asia/Qyzylorda,airport,OurAirports
2918,Semipalatinsk Airport,Semiplatinsk,Kazakhstan,PLX,UASS,50.351295,80.234398,761,6,U,Asia/Qyzylorda,airport,OurAirports
2920,Aktobe Airport,Aktyubinsk,Kazakhstan,AKX,UATT,50.2458,57.206699,738,5,U,Asia/Oral,airport,OurAirports
2922,Heydar Aliyev International Airport,Baku,Azerbaijan,GYD,UBBB,40.467498779296875,50.04669952392578,10,4,E,Asia/Baku,airport,OurAirports
2923,Yakutsk Airport,Yakutsk,Russia,YKS,UEEE,62.093299865722656,129.77099609375,325,9,N,Asia/Yakutsk,airport,OurAirports
2925,Mirny Airport,Mirnyj,Russia,MJZ,UERR,62.534698486328125,114.03900146484375,1156,9,N,Asia/Yakutsk,airport,OurAirports
2926,Ignatyevo Airport,Blagoveschensk,Russia,BQS,UHBB,50.42539978027344,127.41200256347656,638,9,N,Asia/Yakutsk,airport,OurAirports
2927,Khabarovsk-Novy Airport,Khabarovsk,Russia,KHV,UHHH,48.52799987793,135.18800354004,244,10,N,Asia/Vladivostok,airport,OurAirports
2929,Provideniya Bay Airport,Provideniya Bay,Russia,PVS,UHMD,64.37809753417969,-173.2429962158203,72,12,N,Asia/Anadyr,airport,OurAirports
2930,Sokol Airport,Magadan,Russia,GDX,UHMM,59.9109992980957,150.72000122070312,574,11,N,Asia/Srednekolymsk,airport,OurAirports
2932,Yelizovo Airport,Petropavlovsk,Russia,PKC,UHPP,53.16790008544922,158.45399475097656,131,12,N,Asia/Anadyr,airport,OurAirports
2933,Yuzhno-Sakhalinsk Airport,Yuzhno-sakhalinsk,Russia,UUS,UHSS,46.88869857788086,142.71800231933594,59,11,N,Asia/Srednekolymsk,airport,OurAirports
2934,Vladivostok International Airport,Vladivostok,Russia,VVO,UHWW,43.39899826049805,132.1479949951172,46,10,N,Asia/Vladivostok,airport,OurAirports
2935,Chita-Kadala Airport,Chita,Russia,HTA,UIAA,52.026299,113.306,2272,9,N,Asia/Yakutsk,airport,OurAirports
2936,Bratsk Airport,Bratsk,Russia,BTK,UIBB,56.370601654052734,101.697998046875,1610,8,N,Asia/Irkutsk,airport,OurAirports
2937,Irkutsk Airport,Irkutsk,Russia,IKT,UIII,52.268001556396,104.38899993896,1675,8,N,Asia/Irkutsk,airport,OurAirports
2938,Ulan-Ude Airport (Mukhino),Ulan-ude,Russia,UUD,UIUU,51.80780029296875,107.43800354003906,1690,8,N,Asia/Irkutsk,airport,OurAirports
2955,Abakan Airport,Abakan,Russia,ABA,UNAA,53.7400016784668,91.38500213623047,831,7,N,Asia/Krasnoyarsk,airport,OurAirports
2956,Barnaul Airport,Barnaul,Russia,BAX,UNBB,53.363800048828125,83.53849792480469,837,7,N,Asia/Krasnoyarsk,airport,OurAirports
2957,Kemerovo Airport,Kemorovo,Russia,KEJ,UNEE,55.27009963989258,86.1072006225586,863,7,N,Asia/Krasnoyarsk,airport,OurAirports
2958,Omsk Central Airport,Omsk,Russia,OMS,UNOO,54.96699905395508,73.31050109863281,311,6,N,Asia/Omsk,airport,OurAirports
2968,Chelyabinsk Balandino Airport,Chelyabinsk,Russia,CEK,USCC,55.305801,61.5033,769,5,N,Asia/Yekaterinburg,airport,OurAirports
2969,Magnitogorsk International Airport,Magnetiogorsk,Russia,MQF,USCM,53.39310073852539,58.755699157714844,1430,5,N,Asia/Yekaterinburg,airport,OurAirports
2972,Nizhnevartovsk Airport,Nizhnevartovsk,Russia,NJC,USNN,60.94929885864258,76.48359680175781,177,5,N,Asia/Yekaterinburg,airport,OurAirports
2973,Bolshoye Savino Airport,Perm,Russia,PEE,USPP,57.914501190186,56.021198272705,404,5,N,Asia/Yekaterinburg,airport,OurAirports
2974,Surgut Airport,Surgut,Russia,SGC,USRR,61.34370040893555,73.40180206298828,200,5,N,Asia/Yekaterinburg,airport,OurAirports
2975,Koltsovo Airport,Yekaterinburg,Russia,SVX,USSS,56.743099212646,60.802700042725,764,5,N,Asia/Yekaterinburg,airport,OurAirports
2976,Ashgabat International Airport,Ashkhabad,Turkmenistan,ASB,UTAA,37.986801,58.361,692,5,U,Asia/Ashgabat,airport,OurAirports
2977,Turkmenbashi Airport,Krasnovodsk,Turkmenistan,KRW,UTAK,40.063301,53.007198,279,5,U,Asia/Ashgabat,airport,OurAirports
2978,Turkmenabat Airport,Chardzhou,Turkmenistan,CRZ,UTAV,39.08330154418945,63.61330032348633,630,5,U,Asia/Ashgabat,airport,OurAirports
2979,Dushanbe Airport,Dushanbe,Tajikistan,DYU,UTDD,38.543300628699996,68.8249969482,2575,5,U,Asia/Dushanbe,airport,OurAirports
2980,Bukhara Airport,Bukhara,Uzbekistan,BHK,UTSB,39.775001525878906,64.4832992553711,751,5,U,Asia/Samarkand,airport,OurAirports
2981,Samarkand Airport,Samarkand,Uzbekistan,SKD,UTSS,39.70050048828125,66.98380279541016,2224,5,U,Asia/Samarkand,airport,OurAirports
2983,Tashkent International Airport,Tashkent,Uzbekistan,TAS,UTTT,41.257900238,69.2811965942,1417,5,U,Asia/Samarkand,airport,OurAirports
2991,Orenburg Central Airport,Orenburg,Russia,REN,UWOO,51.795799255371094,55.45669937133789,387,5,N,Asia/Yekaterinburg,airport,OurAirports
2992,Ufa International Airport,Ufa,Russia,UFA,UWUU,54.557498931885,55.874401092529,449,5,N,Asia/Yekaterinburg,airport,OurAirports
2994,Sardar Vallabhbhai Patel International Airport,Ahmedabad,India,AMD,VAAH,23.0771999359,72.63469696039999,189,5.5,N,Asia/Calcutta,airport,OurAirports
2995,Akola Airport,Akola,India,AKD,VAAK,20.698999,77.058601,999,5.5,N,Asia/Calcutta,airport,OurAirports
2996,Aurangabad Airport,Aurangabad,India,IXU,VAAU,19.862699508666992,75.39810180664062,1911,5.5,N,Asia/Calcutta,airport,OurAirports
2997,Chhatrapati Shivaji International Airport,Mumbai,India,BOM,VABB,19.0886993408,72.8678970337,39,5.5,N,Asia/Calcutta,airport,OurAirports
2998,Bilaspur Airport,Bilaspur,India,PAB,VABI,21.9884,82.111,899,5.5,N,Asia/Calcutta,airport,OurAirports
2999,Bhuj Airport,Bhuj,India,BHJ,VABJ,23.2877998352,69.6701965332,268,5.5,N,Asia/Calcutta,airport,OurAirports
3000,Belgaum Airport,Belgaum,India,IXG,VABM,15.859299659700001,74.6183013916,2487,5.5,N,Asia/Calcutta,airport,OurAirports
3001,Vadodara Airport,Baroda,India,BDQ,VABO,22.336201,73.226303,129,5.5,N,Asia/Calcutta,airport,OurAirports
3002,Raja Bhoj International Airport,Bhopal,India,BHO,VABP,23.2875003815,77.3374023438,1711,5.5,N,Asia/Calcutta,airport,OurAirports
3003,Bhavnagar Airport,Bhaunagar,India,BHU,VABV,21.752199173,72.1852035522,44,5.5,N,Asia/Calcutta,airport,OurAirports
3004,Daman Airport,Daman,India,NMB,VADN,20.43440055847168,72.84320068359375,33,5.5,N,Asia/Calcutta,airport,OurAirports
3006,Guna Airport,Guna,India,GUX,VAGN,24.654699,77.347298,1600,5.5,N,Asia/Calcutta,airport,OurAirports
3007,Dabolim Airport,Goa,India,GOI,VAGO,15.3808002472,73.8313980103,150,5.5,N,Asia/Calcutta,airport,OurAirports
3008,Devi Ahilyabai Holkar Airport,Indore,India,IDR,VAID,22.7217998505,75.8011016846,1850,5.5,N,Asia/Calcutta,airport,OurAirports
3009,Jabalpur Airport,Jabalpur,India,JLR,VAJB,23.177799224853516,80.052001953125,1624,5.5,N,Asia/Calcutta,airport,OurAirports
3010,Jamnagar Airport,Jamnagar,India,JGA,VAJM,22.465499877929688,70.01260375976562,69,5.5,N,Asia/Calcutta,airport,OurAirports
3011,Kandla Airport,Kandla,India,IXY,VAKE,23.1127,70.100304,96,5.5,N,Asia/Calcutta,airport,OurAirports
3012,Khajuraho Airport,Khajuraho,India,HJR,VAKJ,24.817199707,79.91860198970001,728,5.5,N,Asia/Calcutta,airport,OurAirports
3013,Kolhapur Airport,Kolhapur,India,KLH,VAKP,16.6646995544,74.2893981934,1996,5.5,N,Asia/Calcutta,airport,OurAirports
3014,Keshod Airport,Keshod,India,IXK,VAKS,21.317100524902344,70.27040100097656,167,5.5,N,Asia/Calcutta,airport,OurAirports
3015,Dr. Babasaheb Ambedkar International Airport,Nagpur,India,NAG,VANP,21.092199325561523,79.04720306396484,1033,5.5,N,Asia/Calcutta,airport,OurAirports
3016,Nashik Airport,Nasik Road,India,ISK,VAOZ,20.119101,73.912903,1900,5.5,N,Asia/Calcutta,airport,OurAirports
3017,Pune Airport,Pune,India,PNQ,VAPO,18.58209991455078,73.9197006225586,1942,5.5,N,Asia/Calcutta,airport,OurAirports
3018,Porbandar Airport,Porbandar,India,PBD,VAPR,21.6487007141,69.65720367429999,23,5.5,N,Asia/Calcutta,airport,OurAirports
3019,Rajkot Airport,Rajkot,India,RAJ,VARK,22.3092002869,70.77950286869999,441,5.5,N,Asia/Calcutta,airport,OurAirports
3020,Raipur Airport,Raipur,India,RPR,VARP,21.180401,81.7388,1041,5.5,N,Asia/Calcutta,airport,OurAirports
3021,Solapur Airport,Sholapur,India,SSE,VASL,17.6280002594,75.93479919430001,1584,5.5,N,Asia/Calcutta,airport,OurAirports
3022,Surat Airport,Surat,India,STV,VASU,21.1140995026,72.7417984009,16,5.5,N,Asia/Calcutta,airport,OurAirports
3023,Maharana Pratap Airport,Udaipur,India,UDR,VAUD,24.617700576799997,73.89610290530001,1684,5.5,N,Asia/Calcutta,airport,OurAirports
3024,Bandaranaike International Colombo Airport,Colombo,Sri Lanka,CMB,VCBI,7.180759906768799,79.88410186767578,30,5.5,U,Asia/Colombo,airport,OurAirports
3025,Anuradhapura Air Force Base,Anuradhapura,Sri Lanka,ACJ,VCCA,8.30148983002,80.42790222170001,324,5.5,U,Asia/Colombo,airport,OurAirports
3026,Batticaloa Airport,Batticaloa,Sri Lanka,BTC,VCCB,7.70576,81.678802,20,5.5,U,Asia/Colombo,airport,OurAirports
3027,Colombo Ratmalana Airport,Colombo,Sri Lanka,RML,VCCC,6.821990013122559,79.88619995117188,22,5.5,U,Asia/Colombo,airport,OurAirports
3028,Ampara Airport,Galoya,Sri Lanka,ADP,VCCG,7.33776,81.62594,150,5.5,U,Asia/Colombo,airport,OurAirports
3029,Kankesanturai Airport,Jaffna,Sri Lanka,JAF,VCCJ,9.792329788208008,80.07009887695312,33,5.5,U,Asia/Colombo,airport,OurAirports
3030,China Bay Airport,Trinciomalee,Sri Lanka,TRR,VCCT,8.5385103225708,81.18190002441406,6,5.5,U,Asia/Colombo,airport,OurAirports
3033,Kampong Chhnang Airport,Kompong Chnang,Cambodia,KZC,VDKH,12.255200386,104.564002991,56,7,U,Asia/Phnom_Penh,airport,OurAirports
3034,Phnom Penh International Airport,Phnom-penh,Cambodia,PNH,VDPP,11.546600341796875,104.84400177001953,40,7,U,Asia/Phnom_Penh,airport,OurAirports
3035,Siem Reap International Airport,Siem-reap,Cambodia,REP,VDSR,13.410699844400002,103.81300354,60,7,U,Asia/Phnom_Penh,airport,OurAirports
3036,Stung Treng Airport,Stung Treng,Cambodia,TNX,VDST,13.531900405883789,106.01499938964844,203,7,U,Asia/Phnom_Penh,airport,OurAirports
3037,Along Airport,Along,India,IXV,VEAN,28.17530059814453,94.802001953125,900,5.5,N,Asia/Calcutta,airport,OurAirports
3038,Agartala Airport,Agartala,India,IXA,VEAT,23.8869991302,91.24040222170001,46,5.5,N,Asia/Calcutta,airport,OurAirports
3039,Lengpui Airport,Aizwal,India,AJL,VELP,23.840599060099997,92.6196975708,1398,5.5,N,Asia/Calcutta,airport,OurAirports
3040,Bagdogra Airport,Baghdogra,India,IXB,VEBD,26.68120002746582,88.32859802246094,412,5.5,N,Asia/Calcutta,airport,OurAirports
3042,Biju Patnaik Airport,Bhubaneswar,India,BBI,VEBS,20.244400024399997,85.8178024292,138,5.5,N,Asia/Calcutta,airport,OurAirports
3043,Netaji Subhash Chandra Bose International Airport,Kolkata,India,CCU,VECC,22.654699325561523,88.44670104980469,16,5.5,N,Asia/Calcutta,airport,OurAirports
3044,Cooch Behar Airport,Cooch-behar,India,COH,VECO,26.330499649,89.4672012329,138,5.5,N,Asia/Calcutta,airport,OurAirports
3045,Dhanbad Airport,Dhanbad,India,DBD,VEDB,23.833999633789062,86.42530059814453,847,5.5,N,Asia/Calcutta,airport,OurAirports
3048,Gaya Airport,Gaya,India,GAY,VEGY,24.744300842285156,84.95120239257812,380,5.5,N,Asia/Calcutta,airport,OurAirports
3050,Imphal Airport,Imphal,India,IMF,VEIM,24.7600002289,93.896697998,2540,5.5,N,Asia/Calcutta,airport,OurAirports
3052,Sonari Airport,Jamshedpur,India,IXW,VEJS,22.8132,86.1688,475,5.5,N,Asia/Calcutta,airport,OurAirports
3053,Jorhat Airport,Jorhat,India,JRH,VEJT,26.7315006256,94.1754989624,311,5.5,N,Asia/Calcutta,airport,OurAirports
3054,Kailashahar Airport,Kailashahar,India,IXH,VEKR,24.30820083618164,92.0072021484375,79,5.5,N,Asia/Calcutta,airport,OurAirports
3055,Silchar Airport,Silchar,India,IXS,VEKU,24.9129009247,92.97869873050001,352,5.5,N,Asia/Calcutta,airport,OurAirports
3056,North Lakhimpur Airport,Lilabari,India,IXI,VELR,27.295499801635742,94.09760284423828,330,5.5,N,Asia/Calcutta,airport,OurAirports
3057,Dibrugarh Airport,Mohanbari,India,DIB,VEMN,27.4839000702,95.0168991089,362,5.5,N,Asia/Calcutta,airport,OurAirports
3058,Muzaffarpur Airport,Mazuffarpur,India,MZU,VEMZ,26.11910057067871,85.3136978149414,174,5.5,N,Asia/Calcutta,airport,OurAirports
3061,Lok Nayak Jayaprakash Airport,Patina,India,PAT,VEPT,25.591299057,85.0879974365,170,5.5,N,Asia/Calcutta,airport,OurAirports
3063,Birsa Munda Airport,Ranchi,India,IXR,VERC,23.314300537100003,85.3217010498,2148,5.5,N,Asia/Calcutta,airport,OurAirports
3064,Rourkela Airport,Rourkela,India,RRK,VERK,22.256701,84.814598,659,5.5,N,Asia/Calcutta,airport,OurAirports
3066,Vishakhapatnam Airport,Vishakhapatnam,India,VTZ,VEVZ,17.721200943,83.2245025635,15,5.5,N,Asia/Calcutta,airport,OurAirports
3067,Ziro Airport,Zero,India,ZER,VEZO,27.588301,93.828102,5403,5.5,N,Asia/Calcutta,airport,OurAirports
3068,Cox's Bazar Airport,Cox's Bazar,Bangladesh,CXB,VGCB,21.452199935913086,91.96389770507812,12,6,U,Asia/Dhaka,airport,OurAirports
3069,Shah Amanat International Airport,Chittagong,Bangladesh,CGP,VGEG,22.24959945678711,91.81330108642578,12,6,U,Asia/Dhaka,airport,OurAirports
3070,Ishurdi Airport,Ishurdi,Bangladesh,IRD,VGIS,24.15250015258789,89.04940032958984,45,6,U,Asia/Dhaka,airport,OurAirports
3071,Jessore Airport,Jessore,Bangladesh,JSR,VGJR,23.183799743652344,89.16079711914062,20,6,U,Asia/Dhaka,airport,OurAirports
3072,Shah Mokhdum Airport,Rajshahi,Bangladesh,RJH,VGRJ,24.43720054626465,88.61650085449219,64,6,U,Asia/Dhaka,airport,OurAirports
3073,Saidpur Airport,Saidpur,Bangladesh,SPD,VGSD,25.759199142456055,88.90889739990234,125,6,U,Asia/Dhaka,airport,OurAirports
3074,Osmany International Airport,Sylhet Osmani,Bangladesh,ZYL,VGSY,24.963199615478516,91.8667984008789,50,6,U,Asia/Dhaka,airport,OurAirports
3076,Hazrat Shahjalal International Airport,Dhaka,Bangladesh,DAC,VGZR,23.843347,90.397783,30,6,U,Asia/Dhaka,airport,OurAirports
3077,Hong Kong International Airport,Hong Kong,Hong Kong,HKG,VHHH,22.308901,113.915001,28,8,U,Asia/Hong_Kong,airport,OurAirports
3079,Agra Airport,Agra,India,AGR,VIAG,27.155799865722656,77.96089935302734,551,5.5,N,Asia/Calcutta,airport,OurAirports
3080,Allahabad Airport,Allahabad,India,IXD,VIAL,25.440099716186523,81.73390197753906,322,5.5,N,Asia/Calcutta,airport,OurAirports
3081,Sri Guru Ram Dass Jee International Airport,Amritsar,India,ATQ,VIAR,31.7096004486,74.7973022461,756,5.5,N,Asia/Calcutta,airport,OurAirports
3082,Nal Airport,Bikaner,India,BKB,VIBK,28.070600509643555,73.20719909667969,750,5.5,N,Asia/Calcutta,airport,OurAirports
3084,Lal Bahadur Shastri Airport,Varanasi,India,VNS,VIBN,25.4524002075,82.8592987061,266,5.5,N,Asia/Calcutta,airport,OurAirports
3085,Kullu Manali Airport,Kulu,India,KUU,VIBR,31.876699447631836,77.15440368652344,3573,5.5,N,Asia/Calcutta,airport,OurAirports
3086,Bhatinda Air Force Station,Bhatinda,India,BUP,VIBT,30.270099639892578,74.75579833984375,662,5.5,N,Asia/Calcutta,airport,OurAirports
3088,Bareilly Air Force Station,Bareilly,India,BEK,VIBY,28.4221000671,79.45079803470001,580,5.5,N,Asia/Calcutta,airport,OurAirports
3089,Chandigarh Airport,Chandigarh,India,IXC,VICG,30.673500061035156,76.78849792480469,1012,5.5,N,Asia/Calcutta,airport,OurAirports
3090,Kanpur Airport,Kanpur,India,KNU,VICX,26.404301,80.410103,410,5.5,N,Asia/Calcutta,airport,OurAirports
3092,Dehradun Airport,Dehra Dun,India,DED,VIDN,30.189699,78.180298,1831,5.5,N,Asia/Calcutta,airport,OurAirports
3093,Indira Gandhi International Airport,Delhi,India,DEL,VIDP,28.5665,77.103104,777,5.5,N,Asia/Calcutta,airport,OurAirports
3094,Gwalior Airport,Gwalior,India,GWL,VIGR,26.29330062866211,78.22779846191406,617,5.5,N,Asia/Calcutta,airport,OurAirports
3095,Hissar Airport,Hissar,India,HSS,VIHR,29.179399490356445,75.75530242919922,700,5.5,N,Asia/Calcutta,airport,OurAirports
3097,Jodhpur Airport,Jodhpur,India,JDH,VIJO,26.251100540161133,73.04889678955078,717,5.5,N,Asia/Calcutta,airport,OurAirports
3098,Jaipur International Airport,Jaipur,India,JAI,VIJP,26.8242,75.812202,1263,5.5,N,Asia/Calcutta,airport,OurAirports
3099,Jaisalmer Airport,Jaisalmer,India,JSA,VIJR,26.888700485229492,70.86499786376953,751,5.5,N,Asia/Calcutta,airport,OurAirports
3100,Jammu Airport,Jammu,India,IXJ,VIJU,32.6890983582,74.8374023438,1029,5.5,N,Asia/Calcutta,airport,OurAirports
3102,Kota Airport,Kota,India,KTU,VIKO,25.160200119,75.84559631350001,896,5.5,N,Asia/Calcutta,airport,OurAirports
3103,Ludhiana Airport,Ludhiaha,India,LUH,VILD,30.854700088500977,75.95259857177734,834,5.5,N,Asia/Calcutta,airport,OurAirports
3104,Leh Kushok Bakula Rimpochee Airport,Leh,India,IXL,VILH,34.1358985901,77.5465011597,10682,5.5,N,Asia/Calcutta,airport,OurAirports
3105,Chaudhary Charan Singh International Airport,Lucknow,India,LKO,VILK,26.7605991364,80.8892974854,410,5.5,N,Asia/Calcutta,airport,OurAirports
3106,Pathankot Airport,Pathankot,India,IXP,VIPK,32.233611,75.634444,1017,5.5,N,Asia/Calcutta,airport,OurAirports
3108,Pantnagar Airport,Nainital,India,PGH,VIPT,29.03339958190918,79.47370147705078,769,5.5,N,Asia/Calcutta,airport,OurAirports
3112,Sheikh ul Alam Airport,Srinagar,India,SXR,VISR,33.987098693847656,74.77420043945312,5429,5.5,N,Asia/Calcutta,airport,OurAirports
3113,Satna Airport,Satna,India,TNI,VIST,24.5623,80.854897,1060,5.5,N,Asia/Calcutta,airport,OurAirports
3115,Luang Phabang International Airport,Luang Prabang,Laos,LPQ,VLLB,19.897300720214844,102.16100311279297,955,7,U,Asia/Vientiane,airport,OurAirports
3116,Pakse International Airport,Pakse,Laos,PKZ,VLPS,15.132100105285645,105.78099822998047,351,7,U,Asia/Vientiane,airport,OurAirports
3118,Savannakhet Airport,Savannakhet,Laos,ZVK,VLSK,16.55660057067871,104.76000213623047,509,7,U,Asia/Vientiane,airport,OurAirports
3119,Sam Neua Airport,Sam Neua,Laos,NEU,VLSN,20.418399810791016,104.06700134277344,3281,7,U,Asia/Vientiane,airport,OurAirports
3120,Wattay International Airport,Vientiane,Laos,VTE,VLVT,17.988300323500003,102.56300354,564,7,U,Asia/Vientiane,airport,OurAirports
3121,Macau International Airport,Macau,Macau,MFM,VMMC,22.149599,113.592003,20,8,U,Asia/Macau,airport,OurAirports
3122,Gautam Buddha Airport,Bhairawa,Nepal,BWA,VNBW,27.505685,83.416293,358,5.75,N,Asia/Katmandu,airport,OurAirports
3124,Janakpur Airport,Janakpur,Nepal,JKR,VNJP,26.708799362199997,85.9224014282,256,5.75,N,Asia/Katmandu,airport,OurAirports
3125,Tribhuvan International Airport,Kathmandu,Nepal,KTM,VNKT,27.6966,85.3591,4390,5.75,N,Asia/Katmandu,airport,OurAirports
3127,Pokhara Airport,Pokhara,Nepal,PKR,VNPK,28.200899124145508,83.98210144042969,2712,5.75,N,Asia/Katmandu,airport,OurAirports
3128,Simara Airport,Simara,Nepal,SIF,VNSI,27.159500122070312,84.9801025390625,450,5.75,N,Asia/Katmandu,airport,OurAirports
3129,Biratnagar Airport,Biratnagar,Nepal,BIR,VNVT,26.48150062561035,87.26399993896484,236,5.75,N,Asia/Katmandu,airport,OurAirports
3130,Agatti Airport,Agatti Island,India,AGX,VOAT,10.823699951171875,72.1760025024414,14,5.5,N,Asia/Calcutta,airport,OurAirports
3131,Kempegowda International Airport,Bangalore,India,BLR,VOBL,13.1979,77.706299,3000,5.5,N,Asia/Calcutta,airport,OurAirports
3132,Bellary Airport,Bellary,India,BEP,VOBI,15.162799835205078,76.88279724121094,30,5.5,N,Asia/Calcutta,airport,OurAirports
3134,Vijayawada Airport,Vijayawada,India,VGA,VOBZ,16.530399322509766,80.79679870605469,82,5.5,N,Asia/Calcutta,airport,OurAirports
3135,Coimbatore International Airport,Coimbatore,India,CJB,VOCB,11.029999733,77.0434036255,1324,5.5,N,Asia/Calcutta,airport,OurAirports
3136,Cochin International Airport,Kochi,India,COK,VOCI,10.152,76.401901,30,5.5,N,Asia/Calcutta,airport,OurAirports
3137,Calicut International Airport,Calicut,India,CCJ,VOCL,11.1367998123,75.95529937740001,342,5.5,N,Asia/Calcutta,airport,OurAirports
3138,Kadapa Airport,Cuddapah,India,CDP,VOCP,14.51,78.772778,430,5.5,N,Asia/Calcutta,airport,OurAirports
3139,Car Nicobar Air Force Station,Carnicobar,India,CBD,VOCX,9.152509689331055,92.8196029663086,5,5.5,N,Asia/Calcutta,airport,OurAirports
3141,Begumpet Airport,Hyderabad,India,BPM,VOHY,17.4531002045,78.4675979614,1742,5.5,N,Asia/Calcutta,airport,OurAirports
3142,Madurai Airport,Madurai,India,IXM,VOMD,9.83450984955,78.09339904790001,459,5.5,N,Asia/Calcutta,airport,OurAirports
3143,Mangalore International Airport,Mangalore,India,IXE,VOML,12.9612998962,74.8900985718,337,5.5,N,Asia/Calcutta,airport,OurAirports
3144,Chennai International Airport,Madras,India,MAA,VOMM,12.990005493164062,80.16929626464844,52,5.5,N,Asia/Calcutta,airport,OurAirports
3146,Vir Savarkar International Airport,Port Blair,India,IXZ,VOPB,11.641200065612793,92.72969818115234,14,5.5,N,Asia/Calcutta,airport,OurAirports
3147,Pondicherry Airport,Pendicherry,India,PNY,VOPC,11.968,79.812,134,5.5,N,Asia/Calcutta,airport,OurAirports
3148,Rajahmundry Airport,Rajahmundry,India,RJA,VORY,17.1103992462,81.81819915770001,151,5.5,N,Asia/Calcutta,airport,OurAirports
3149,Salem Airport,Salem,India,SXV,VOSM,11.78330039978,78.06559753418,1008,5.5,N,Asia/Calcutta,airport,OurAirports
3150,Tanjore Air Force Base,Tanjore,India,TJV,VOTJ,10.722399711608887,79.10160064697266,253,5.5,N,Asia/Calcutta,airport,OurAirports
3151,Tirupati Airport,Tirupeti,India,TIR,VOTP,13.632499694800002,79.543296814,350,5.5,N,Asia/Calcutta,airport,OurAirports
3152,Tiruchirapally Civil Airport Airport,Tiruchirappalli,India,TRZ,VOTR,10.765399932861328,78.70970153808594,288,5.5,N,Asia/Calcutta,airport,OurAirports
3153,Trivandrum International Airport,Trivandrum,India,TRV,VOTV,8.48211956024,76.9200973511,15,5.5,N,Asia/Calcutta,airport,OurAirports
3155,Paro Airport,Thimphu,Bhutan,PBH,VQPR,27.403200149499998,89.42459869380001,7332,6,N,Asia/Thimphu,airport,OurAirports
3157,Don Mueang International Airport,Bangkok,Thailand,DMK,VTBD,13.9125995636,100.607002258,9,7,U,Asia/Bangkok,airport,OurAirports
3158,Kamphaeng Saen Airport,Nakhon Pathom,Thailand,KDT,VTBK,14.1020002365,99.9171981812,30,7,U,Asia/Bangkok,airport,OurAirports
3161,U-Tapao International Airport,Pattaya,Thailand,UTP,VTBU,12.679900169372559,101.00499725341797,42,7,U,Asia/Bangkok,airport,OurAirports
3163,Lampang Airport,Lampang,Thailand,LPT,VTCL,18.27090072631836,99.50420379638672,811,7,U,Asia/Bangkok,airport,OurAirports
3164,Phrae Airport,Phrae,Thailand,PRH,VTCP,18.132200241088867,100.16500091552734,538,7,U,Asia/Bangkok,airport,OurAirports
3165,Hua Hin Airport,Prachuap Khiri Khan,Thailand,HHQ,VTPH,12.6361999512,99.951499939,62,7,U,Asia/Bangkok,airport,OurAirports
3166,Takhli Airport,Nakhon Sawan,Thailand,TKH,VTPI,15.277299881,100.29599762,107,7,U,Asia/Bangkok,airport,OurAirports
3170,Phitsanulok Airport,Phitsanulok,Thailand,PHS,VTPP,16.782899856567383,100.27899932861328,154,7,U,Asia/Bangkok,airport,OurAirports
3173,Narathiwat Airport,Narathiwat,Thailand,NAW,VTSC,6.5199198722839355,101.74299621582031,16,7,U,Asia/Bangkok,airport,OurAirports
3174,Krabi Airport,Krabi,Thailand,KBV,VTSG,8.09912014008,98.9861984253,82,7,U,Asia/Bangkok,airport,OurAirports
3175,Songkhla Airport,Songkhla,Thailand,SGZ,VTSH,7.186560153961182,100.60800170898438,12,7,U,Asia/Bangkok,airport,OurAirports
3176,Pattani Airport,Pattani,Thailand,PAN,VTSK,6.785459995269775,101.15399932861328,8,7,U,Asia/Bangkok,airport,OurAirports
3177,Samui Airport,Ko Samui,Thailand,USM,VTSM,9.547789573669998,100.06199646,64,7,U,Asia/Bangkok,airport,OurAirports
3179,Phuket International Airport,Phuket,Thailand,HKT,VTSP,8.1132,98.316902,82,7,U,Asia/Bangkok,airport,OurAirports
3180,Ranong Airport,Ranong,Thailand,UNN,VTSR,9.777620315551758,98.58550262451172,57,7,U,Asia/Bangkok,airport,OurAirports
3181,Hat Yai International Airport,Hat Yai,Thailand,HDY,VTSS,6.93320989609,100.392997742,90,7,U,Asia/Bangkok,airport,OurAirports
3182,Trang Airport,Trang,Thailand,TST,VTST,7.508739948272705,99.6166000366211,67,7,U,Asia/Bangkok,airport,OurAirports
3183,Udon Thani Airport,Udon Thani,Thailand,UTH,VTUD,17.386400222800003,102.788002014,579,7,U,Asia/Bangkok,airport,OurAirports
3184,Sakon Nakhon Airport,Sakon Nakhon,Thailand,SNO,VTUI,17.195100784301758,104.11900329589844,529,7,U,Asia/Bangkok,airport,OurAirports
3185,Surin Airport,Surin,Thailand,PXR,VTUJ,14.868300437927,103.49800109863,478,7,U,Asia/Bangkok,airport,OurAirports
3186,Loei Airport,Loei,Thailand,LOE,VTUL,17.43910026550293,101.72200012207031,860,7,U,Asia/Bangkok,airport,OurAirports
3196,Da Nang International Airport,Danang,Vietnam,DAD,VVDN,16.043899536132812,108.1989974975586,33,7,U,Asia/Saigon,airport,OurAirports
3199,Noi Bai International Airport,Hanoi,Vietnam,HAN,VVNB,21.221200942993164,105.80699920654297,39,7,U,Asia/Saigon,airport,OurAirports
3200,Nha Trang Air Base,Nhatrang,Vietnam,NHA,VVNT,12.2275,109.192001,20,7,U,Asia/Saigon,airport,OurAirports
3201,Phu Bai Airport,Hue,Vietnam,HUI,VVPB,16.401500701899998,107.70300293,48,7,U,Asia/Saigon,airport,OurAirports
3204,Phu Quoc International Airport,Phuquoc,Vietnam,PQC,VVPQ,10.1698,103.9931,37,7,U,Asia/Saigon,airport,OurAirports
3205,Tan Son Nhat International Airport,Ho Chi Minh City,Vietnam,SGN,VVTS,10.8187999725,106.652000427,33,7,U,Asia/Saigon,airport,OurAirports
3207,Ann Airport,Ann,Burma,VBA,VYAN,19.769199,94.0261,74,6.5,U,Asia/Rangoon,airport,OurAirports
3209,Bagan Airport,Bagan,Burma,NYU,VYBG,21.178800582885742,94.9301986694336,312,6.5,U,Asia/Rangoon,airport,OurAirports
3213,Heho Airport,Heho,Burma,HEH,VYHH,20.746999740600586,96.79199981689453,3858,6.5,U,Asia/Rangoon,airport,OurAirports
3214,Hommalinn Airport,Hommalin,Burma,HOX,VYHL,24.899599075317383,94.91400146484375,534,6.5,U,Asia/Rangoon,airport,OurAirports
3215,Kengtung Airport,Kengtung,Burma,KET,VYKG,21.301599502563477,99.63600158691406,2798,6.5,U,Asia/Rangoon,airport,OurAirports
3217,Kyaukpyu Airport,Kyaukpyu,Burma,KYP,VYKP,19.42639923095703,93.53479766845703,20,6.5,U,Asia/Rangoon,airport,OurAirports
3220,Lashio Airport,Lashio,Burma,LSH,VYLS,22.9778995513916,97.752197265625,2450,6.5,U,Asia/Rangoon,airport,OurAirports
3222,Mandalay International Airport,Mandalay,Burma,MDL,VYMD,21.702199935913086,95.97789764404297,300,6.5,U,Asia/Rangoon,airport,OurAirports
3223,Myeik Airport,Myeik,Burma,MGZ,VYME,12.439800262451172,98.62149810791016,75,6.5,U,Asia/Rangoon,airport,OurAirports
3224,Myitkyina Airport,Myitkyina,Burma,MYT,VYMK,25.38360023498535,97.35189819335938,475,6.5,U,Asia/Rangoon,airport,OurAirports
3226,Momeik Airport,Momeik,Burma,MOE,VYMO,23.092500686645508,96.64530181884766,600,6.5,U,Asia/Rangoon,airport,OurAirports
3227,Mong Hsat Airport,Mong Hsat,Burma,MOG,VYMS,20.516799926757812,99.25679779052734,1875,6.5,U,Asia/Rangoon,airport,OurAirports
3229,Namsang Airport,Namsang,Burma,NMS,VYNS,20.890499114990234,97.73590087890625,3100,6.5,U,Asia/Rangoon,airport,OurAirports
3230,Hpa-N Airport,Hpa-an,Burma,PAA,VYPA,16.893699645996094,97.67459869384766,150,6.5,U,Asia/Rangoon,airport,OurAirports
3232,Putao Airport,Putao,Burma,PBU,VYPT,27.32990074157715,97.42630004882812,1500,6.5,U,Asia/Rangoon,airport,OurAirports
3233,Pyay Airport,Pyay,Burma,PRU,VYPY,18.824499130249023,95.26599884033203,120,6.5,U,Asia/Rangoon,airport,OurAirports
3235,Sittwe Airport,Sittwe,Burma,AKY,VYSW,20.132699966430664,92.87259674072266,27,6.5,U,Asia/Rangoon,airport,OurAirports
3236,Thandwe Airport,Thandwe,Burma,SNW,VYTD,18.4606990814209,94.30010223388672,20,6.5,U,Asia/Rangoon,airport,OurAirports
3237,Tachileik Airport,Tachilek,Burma,THL,VYTL,20.483800888061523,99.9354019165039,1280,6.5,U,Asia/Rangoon,airport,OurAirports
3239,Yangon International Airport,Yangon,Burma,RGN,VYYY,16.907300949099998,96.1332015991,109,6.5,U,Asia/Rangoon,airport,OurAirports
3240,Hasanuddin International Airport,Ujung Pandang,Indonesia,UPG,WAAA,-5.061629772186279,119.55400085449219,47,8,N,Asia/Makassar,airport,OurAirports
3241,Frans Kaisiepo Airport,Biak,Indonesia,BIK,WABB,-1.190019965171814,136.10800170898438,46,9,N,Asia/Jayapura,airport,OurAirports
3242,Nabire Airport,Nabire,Indonesia,NBX,WABI,-3.36818,135.496002,20,9,N,Asia/Jayapura,airport,OurAirports
3243,Moses Kilangin Airport,Timika,Indonesia,TIM,WABP,-4.528279781341553,136.88699340820312,103,9,N,Asia/Jayapura,airport,OurAirports
3244,Sentani International Airport,Jayapura,Indonesia,DJJ,WAJJ,-2.5769500733,140.5160064698,289,9,N,Asia/Jayapura,airport,OurAirports
3245,Wamena Airport,Wamena,Indonesia,WMX,WAJW,-4.10251,138.957001,5085,9,N,Asia/Jayapura,airport,OurAirports
3246,Mopah Airport,Merauke,Indonesia,MKQ,WAKK,-8.52029037475586,140.41799926757812,10,9,N,Asia/Jayapura,airport,OurAirports
3247,Jalaluddin Airport,Gorontalo,Indonesia,GTO,WAMG,0.63711899519,122.849998474,105,8,N,Asia/Makassar,airport,OurAirports
3249,Mutiara Airport,Palu,Indonesia,PLW,WAML,-0.9185420274734497,119.91000366210938,284,8,N,Asia/Makassar,airport,OurAirports
3250,Sam Ratulangi Airport,Manado,Indonesia,MDC,WAMM,1.5492600202560425,124.9260025024414,264,8,N,Asia/Makassar,airport,OurAirports
3251,Kasiguncu Airport,Poso,Indonesia,PSJ,WAMP,-1.41674995422,120.657997131,174,8,N,Asia/Makassar,airport,OurAirports
3252,Pitu Airport,Morotai Island,Indonesia,OTI,WAMR,2.0459899902300003,128.324996948,49,9,N,Asia/Jayapura,airport,OurAirports
3253,Sultan Khairun Babullah Airport,Ternate,Indonesia,TTE,WAMT,0.831413984298706,127.38099670410156,49,9,N,Asia/Jayapura,airport,OurAirports
3254,Syukuran Aminuddin Amir Airport,Luwuk,Indonesia,LUW,WAMW,-1.03892,122.772003,56,8,N,Asia/Makassar,airport,OurAirports
3256,"Pattimura Airport, Ambon",Ambon,Indonesia,AMQ,WAPP,-3.7102599144,128.089004517,33,9,N,Asia/Jayapura,airport,OurAirports
3257,Fakfak Airport,Fak Fak,Indonesia,FKQ,WASF,-2.9201900959014893,132.26699829101562,462,9,N,Asia/Jayapura,airport,OurAirports
3258,Kaimana Airport,Kaimana,Indonesia,KNG,WASK,-3.6445200443267822,133.6959991455078,19,9,N,Asia/Jayapura,airport,OurAirports
3259,Babo Airport,Babo,Indonesia,BXB,WASO,-2.5322399139404297,133.43899536132812,10,9,N,Asia/Jayapura,airport,OurAirports
3260,Rendani Airport,Manokwari,Indonesia,MKW,WASR,-0.8918330073356628,134.0489959716797,23,9,N,Asia/Jayapura,airport,OurAirports
3261,Dominique Edward Osok Airport,Sorong,Indonesia,SOQ,WAXX,-0.894,131.287,10,9,N,Asia/Jayapura,airport,OurAirports
3262,Bintulu Airport,Bintulu,Malaysia,BTU,WBGB,3.12385010719,113.019996643,74,8,N,Asia/Kuala_Lumpur,airport,OurAirports
3263,Kuching International Airport,Kuching,Malaysia,KCH,WBGG,1.4846999645233154,110.34700012207031,89,8,N,Asia/Kuala_Lumpur,airport,OurAirports
3264,Limbang Airport,Limbang,Malaysia,LMN,WBGJ,4.808300018310547,115.01000213623047,14,8,N,Asia/Kuala_Lumpur,airport,OurAirports
3265,Marudi Airport,Marudi,Malaysia,MUR,WBGM,4.178979873657227,114.3290023803711,103,8,N,Asia/Kuala_Lumpur,airport,OurAirports
3266,Miri Airport,Miri,Malaysia,MYY,WBGR,4.322010040283203,113.98699951171875,59,8,N,Asia/Kuala_Lumpur,airport,OurAirports
3267,Sibu Airport,Sibu,Malaysia,SBW,WBGS,2.2616000175476074,111.98500061035156,122,8,N,Asia/Kuala_Lumpur,airport,OurAirports
3268,Lahad Datu Airport,Lahad Datu,Malaysia,LDU,WBKD,5.032249927520752,118.3239974975586,45,8,N,Asia/Kuala_Lumpur,airport,OurAirports
3269,Kota Kinabalu International Airport,Kota Kinabalu,Malaysia,BKI,WBKK,5.9372100830078125,116.0510025024414,10,8,N,Asia/Kuala_Lumpur,airport,OurAirports
3270,Labuan Airport,Labuan,Malaysia,LBU,WBKL,5.300680160522461,115.25,101,8,N,Asia/Kuala_Lumpur,airport,OurAirports
3271,Tawau Airport,Tawau,Malaysia,TWU,WBKW,4.320159912109375,118.12799835205078,57,8,N,Asia/Kuala_Lumpur,airport,OurAirports
3272,Brunei International Airport,Bandar Seri Begawan,Brunei,BWN,WBSB,4.944200038909912,114.9280014038086,73,8,U,Asia/Brunei,airport,OurAirports
3273,Sultan Syarif Kasim Ii (Simpang Tiga) Airport,Pekanbaru,Indonesia,PKU,WIBB,0.46078601479530334,101.44499969482422,102,7,N,Asia/Jakarta,airport,OurAirports
3274,Pinang Kampai Airport,Dumai,Indonesia,DUM,WIBD,1.60919,101.433998,55,7,N,Asia/Jakarta,airport,OurAirports
3275,Soekarno-Hatta International Airport,Jakarta,Indonesia,CGK,WIII,-6.1255698204,106.65599823,34,7,N,Asia/Jakarta,airport,OurAirports
3276,Binaka Airport,Gunung Sitoli,Indonesia,GNS,WIMB,1.16638,97.704697,20,7,N,Asia/Jakarta,airport,OurAirports
3277,Aek Godang Airport,Padang Sidempuan,Indonesia,AEG,WIME,1.4001,99.430496,922,7,N,Asia/Jakarta,airport,OurAirports
3278,Minangkabau International Airport,Padang,Indonesia,PDG,WIPT,-0.786917,100.280998,18,7,N,Asia/Jakarta,airport,OurAirports
3279,Soewondo Air Force Base,Medan,Indonesia,MES,WIMK,3.559167,98.671111,114,7,N,Asia/Jakarta,airport,OurAirports
3280,Dr Ferdinand Lumban Tobing Airport,Sibolga,Indonesia,FLZ,WIMS,1.55594,98.888901,33,7,N,Asia/Jakarta,airport,OurAirports
3281,Nanga Pinoh Airport,Nangapinoh,Indonesia,NPO,WIOG,-0.34886899590492,111.74800109863,123,7,N,Asia/Jakarta,airport,OurAirports
3282,Ketapang(Rahadi Usman) Airport,Ketapang,Indonesia,KTG,WIOK,-1.816640019416809,109.96299743652344,46,7,N,Asia/Jakarta,airport,OurAirports
3284,Supadio Airport,Pontianak,Indonesia,PNK,WIOO,-0.15071099996566772,109.40399932861328,10,7,N,Asia/Jakarta,airport,OurAirports
3287,Sultan Thaha Airport,Jambi,Indonesia,DJB,WIPA,-1.6380200386047363,103.64399719238281,82,7,N,Asia/Jakarta,airport,OurAirports
3288,Fatmawati Soekarno Airport,Bengkulu,Indonesia,BKS,WIPL,-3.8637,102.338997,50,7,N,Asia/Jakarta,airport,OurAirports
3289,Sultan Mahmud Badaruddin II Airport,Palembang,Indonesia,PLM,WIPP,-2.8982501029968,104.69999694824,49,7,N,Asia/Jakarta,airport,OurAirports
3291,Japura Airport,Rengat,Indonesia,RGT,WIPR,-0.35280799865722656,102.33499908447266,62,7,N,Asia/Jakarta,airport,OurAirports
3292,Lhok Sukon Airport,Lhok Sukon,Indonesia,LSX,WITL,5.069509983062744,97.25920104980469,28,7,N,Asia/Jakarta,airport,OurAirports
3294,Sultan Iskandar Muda International Airport,Banda Aceh,Indonesia,BTJ,WITT,5.522872024010001,95.42063713070002,65,7,N,Asia/Jakarta,airport,OurAirports
3296,Sultan Abdul Halim Airport,Alor Setar,Malaysia,AOR,WMKA,6.189670085906982,100.39800262451172,15,8,N,Asia/Kuala_Lumpur,airport,OurAirports
3297,Butterworth Airport,Butterworth,Malaysia,BWH,WMKB,5.4659199714660645,100.39099884033203,11,8,N,Asia/Kuala_Lumpur,airport,OurAirports
3298,Sultan Ismail Petra Airport,Kota Bahru,Malaysia,KBR,WMKC,6.1668500900268555,102.29299926757812,16,8,N,Asia/Kuala_Lumpur,airport,OurAirports
3299,Kuantan Airport,Kuantan,Malaysia,KUA,WMKD,3.7753899097442627,103.20899963378906,58,8,N,Asia/Kuala_Lumpur,airport,OurAirports
3300,Kerteh Airport,Kerteh,Malaysia,KTE,WMKE,4.537220001220703,103.427001953125,18,8,N,Asia/Kuala_Lumpur,airport,OurAirports
3302,Sultan Azlan Shah Airport,Ipoh,Malaysia,IPH,WMKI,4.567969799041748,101.09200286865234,130,8,N,Asia/Kuala_Lumpur,airport,OurAirports
3303,Senai International Airport,Johor Bahru,Malaysia,JHB,WMKJ,1.64131,103.669998,135,8,N,Asia/Kuala_Lumpur,airport,OurAirports
3304,Kuala Lumpur International Airport,Kuala Lumpur,Malaysia,KUL,WMKK,2.745579957962,101.70999908447,69,8,N,Asia/Kuala_Lumpur,airport,OurAirports
3305,Langkawi International Airport,Langkawi,Malaysia,LGK,WMKL,6.329730033874512,99.72869873046875,29,8,N,Asia/Kuala_Lumpur,airport,OurAirports
3306,Malacca Airport,Malacca,Malaysia,MKZ,WMKM,2.2633600235,102.251998901,35,8,N,Asia/Kuala_Lumpur,airport,OurAirports
3307,Sultan Mahmud Airport,Kuala Terengganu,Malaysia,TGG,WMKN,5.3826398849487305,103.10299682617188,21,8,N,Asia/Kuala_Lumpur,airport,OurAirports
3308,Penang International Airport,Penang,Malaysia,PEN,WMKP,5.297140121459961,100.2770004272461,11,8,N,Asia/Kuala_Lumpur,airport,OurAirports
3309,Suai Airport,Suai,East Timor,UAI,WPDB,-9.30331039428711,125.28700256347656,96,9,U,Asia/Dili,airport,OurAirports
3310,Presidente Nicolau Lobato International Airport,Dili,East Timor,DIL,WPDL,-8.54640007019,125.526000977,154,9,U,Asia/Dili,airport,OurAirports
3311,Cakung Airport,Baucau,East Timor,BCH,WPEC,-8.489029884339999,126.401000977,1771,9,U,Asia/Dili,airport,OurAirports
3313,Paya Lebar Air Base,Paya Lebar,Singapore,QPG,WSAP,1.3604199886322021,103.91000366210938,65,8,N,Asia/Singapore,airport,OurAirports
3314,Tengah Air Base,Tengah,Singapore,TGA,WSAT,1.38725996017,103.708999634,50,8,N,Asia/Singapore,airport,OurAirports
3315,Seletar Airport,Singapore,Singapore,XSP,WSSL,1.416949987411499,103.86799621582031,36,8,N,Asia/Singapore,airport,OurAirports
3316,Singapore Changi Airport,Singapore,Singapore,SIN,WSSS,1.35019,103.994003,22,8,N,Asia/Singapore,airport,OurAirports
3364,Beijing Capital International Airport,Beijing,China,PEK,ZBAA,40.080101013183594,116.58499908447266,116,8,U,Asia/Shanghai,airport,OurAirports
3366,Dongshan Airport,Hailar,China,HLD,ZBLA,49.2050018311,119.824996948,2169,8,U,Asia/Shanghai,airport,OurAirports
3368,Tianjin Binhai International Airport,Tianjin,China,TSN,ZBTJ,39.124401092499994,117.346000671,10,8,U,Asia/Shanghai,airport,OurAirports
3369,Taiyuan Wusu Airport,Taiyuan,China,TYN,ZBYN,37.74689865112305,112.62799835205078,2575,8,U,Asia/Shanghai,airport,OurAirports
3370,Guangzhou Baiyun International Airport,Guangzhou,China,CAN,ZGGG,23.39240074157715,113.29900360107422,50,8,U,Asia/Shanghai,airport,OurAirports
3371,Changsha Huanghua International Airport,Changcha,China,CSX,ZGHA,28.189199447599997,113.220001221,217,8,U,Asia/Shanghai,airport,OurAirports
3372,Guilin Liangjiang International Airport,Guilin,China,KWL,ZGKL,25.21809959411621,110.03900146484375,570,8,U,Asia/Shanghai,airport,OurAirports
3373,Nanning Wuxu Airport,Nanning,China,NNG,ZGNN,22.608299255371094,108.1719970703125,421,8,U,Asia/Shanghai,airport,OurAirports
3374,Shenzhen Bao'an International Airport,Shenzhen,China,SZX,ZGSZ,22.639299392700195,113.81099700927734,13,8,U,Asia/Shanghai,airport,OurAirports
3375,Zhengzhou Xinzheng International Airport,Zhengzhou,China,CGO,ZHCC,34.519699096699995,113.841003418,495,8,U,Asia/Shanghai,airport,OurAirports
3376,Wuhan Tianhe International Airport,Wuhan,China,WUH,ZHHH,30.7838,114.208,113,8,U,Asia/Shanghai,airport,OurAirports
3377,Pyongyang Sunan International Airport,Pyongyang,North Korea,FNJ,ZKPY,39.224098,125.669998,117,8.5,U,Asia/Pyongyang,airport,OurAirports
3378,Lanzhou Zhongchuan Airport,Lanzhou,China,LHW,ZLLL,36.5152015686,103.620002747,6388,8,U,Asia/Shanghai,airport,OurAirports
3379,Xi'an Xianyang International Airport,Xi'an,China,XIY,ZLXY,34.447102,108.751999,1572,8,U,Asia/Shanghai,airport,OurAirports
3380,Chinggis Khaan International Airport,Ulan Bator,Mongolia,ULN,ZMUB,47.843102,106.766998,4364,8,U,Asia/Ulaanbaatar,airport,OurAirports
3381,Xishuangbanna Gasa Airport,Jinghonggasa,China,JHG,ZPJH,21.973899841308594,100.76000213623047,1815,8,U,Asia/Shanghai,airport,OurAirports
3382,Kunming Changshui International Airport,Kunming,China,KMG,ZPPP,25.1019444,102.9291667,6903,8,N,Asia/Shanghai,airport,OurAirports
3383,Xiamen Gaoqi International Airport,Xiamen,China,XMN,ZSAM,24.54400062561035,118.12799835205078,59,8,U,Asia/Shanghai,airport,OurAirports
3384,Nanchang Changbei International Airport,Nanchang,China,KHN,ZSCN,28.864999771118164,115.9000015258789,143,8,U,Asia/Shanghai,airport,OurAirports
3385,Fuzhou Changle International Airport,Fuzhou,China,FOC,ZSFZ,25.935100555419922,119.66300201416016,46,8,U,Asia/Shanghai,airport,OurAirports
3386,Hangzhou Xiaoshan International Airport,Hangzhou,China,HGH,ZSHC,30.22949981689453,120.43399810791016,23,8,U,Asia/Shanghai,airport,OurAirports
3387,Ningbo Lishe International Airport,Ninbo,China,NGB,ZSNB,29.82670021057129,121.46199798583984,13,8,U,Asia/Shanghai,airport,OurAirports
3388,Nanjing Lukou Airport,Nanjing,China,NKG,ZSNJ,31.742000579833984,118.86199951171875,49,8,U,Asia/Shanghai,airport,OurAirports
3389,Hefei Luogang International Airport,Hefei,China,HFE,ZSOF,31.780000686645508,117.2979965209961,108,8,U,Asia/Shanghai,airport,OurAirports
3390,Liuting Airport,Qingdao,China,TAO,ZSQD,36.2661018372,120.374000549,33,8,U,Asia/Shanghai,airport,OurAirports
3391,Shanghai Hongqiao International Airport,Shanghai,China,SHA,ZSSS,31.197900772094727,121.33599853515625,10,8,U,Asia/Shanghai,airport,OurAirports
3392,Yantai Laishan Airport,Yantai,China,YNT,ZSYT,37.40169906616211,121.37200164794922,59,8,U,Asia/Shanghai,airport,OurAirports
3393,Chongqing Jiangbei International Airport,Chongqing,China,CKG,ZUCK,29.719200134277344,106.64199829101562,1365,8,U,Asia/Shanghai,airport,OurAirports
3394,Longdongbao Airport,Guiyang,China,KWE,ZUGY,26.53849983215332,106.8010025024414,3736,8,U,Asia/Shanghai,airport,OurAirports
3395,Chengdu Shuangliu International Airport,Chengdu,China,CTU,ZUUU,30.578500747680664,103.9469985961914,1625,8,U,Asia/Shanghai,airport,OurAirports
3396,Xichang Qingshan Airport,Xichang,China,XIC,ZUXC,27.989099502563477,102.18399810791016,5112,8,U,Asia/Shanghai,airport,OurAirports
3397,Kashgar Airport,Kashi,China,KHG,ZWSH,39.5429000854,76.0199966431,4529,8,U,Asia/Shanghai,airport,OurAirports
3398,Hotan Airport,Hotan,China,HTN,ZWTN,37.03850173950195,79.86489868164062,4672,8,U,Asia/Shanghai,airport,OurAirports
3399,Ürümqi Diwopu International Airport,Urumqi,China,URC,ZWWW,43.907100677490234,87.47419738769531,2125,8,U,Asia/Shanghai,airport,OurAirports
3400,Taiping Airport,Harbin,China,HRB,ZYHB,45.6234016418457,126.25,457,8,U,Asia/Shanghai,airport,OurAirports
3402,Mudanjiang Hailang International Airport,Mudanjiang,China,MDG,ZYMD,44.5241012573,129.569000244,883,8,U,Asia/Shanghai,airport,OurAirports
3404,Zhoushuizi Airport,Dalian,China,DLC,ZYTL,38.9656982421875,121.53900146484375,107,8,U,Asia/Shanghai,airport,OurAirports
3406,Shanghai Pudong International Airport,Shanghai,China,PVG,ZSPD,31.143400192260742,121.80500030517578,13,8,U,Asia/Shanghai,airport,OurAirports
3407,Pulau Tioman Airport,Tioman,Malaysia,TOD,WMBT,2.8181800842285156,104.16000366210938,15,8,N,Asia/Kuala_Lumpur,airport,OurAirports
3408,Sultan Abdul Aziz Shah International Airport,Kuala Lumpur,Malaysia,SZB,WMSA,3.130579948425293,101.54900360107422,90,8,N,Asia/Kuala_Lumpur,airport,OurAirports
3409,Noto Airport,Wajima,Japan,NTQ,RJNW,37.2930984497,136.962005615,718,9,U,Asia/Tokyo,airport,OurAirports
3885,Suvarnabhumi Airport,Bangkok,Thailand,BKK,VTBS,13.681099891662598,100.74700164794922,5,7,U,Asia/Bangkok,airport,OurAirports
3886,Naha Airport,Naha,Indonesia,NAH,WAMH,3.6832098960876465,125.52799987792969,16,8,N,Asia/Makassar,airport,OurAirports
3887,Andi Jemma Airport,Masamba,Indonesia,MXB,WAWM,-2.55803,120.323997,164,8,N,Asia/Makassar,airport,OurAirports
3888,Soroako Airport,Soroako,Indonesia,SQR,WAWS,-2.5311999320983887,121.35800170898438,1388,8,N,Asia/Makassar,airport,OurAirports
3889,Pongtiku Airport,Makale,Indonesia,TTR,WAWT,-3.0447399616241,119.82199859619,2884,8,N,Asia/Makassar,airport,OurAirports
3890,Wolter Monginsidi Airport,Kendari,Indonesia,KDI,WAWW,-4.081610202789307,122.41799926757812,538,8,N,Asia/Makassar,airport,OurAirports
3891,Maimun Saleh Airport,Sabang,Indonesia,SBG,WITB,5.87412977219,95.33969879150001,393,7,N,Asia/Jakarta,airport,OurAirports
3892,Cibeureum Airport,Tasikmalaya,Indonesia,TSY,WICM,-7.346600055690001,108.246002197,1148,7,N,Asia/Jakarta,airport,OurAirports
3894,Abdul Rachman Saleh Airport,Malang,Indonesia,MLG,WARA,-7.926559925079999,112.714996338,1726,7,N,Asia/Jakarta,airport,OurAirports
3896,Husein Sastranegara International Airport,Bandung,Indonesia,BDO,WICC,-6.900629997253418,107.57599639892578,2436,7,N,Asia/Jakarta,airport,OurAirports
3897,Penggung Airport,Cirebon,Indonesia,CBN,WICD,-6.756140232090001,108.540000916,89,7,N,Asia/Jakarta,airport,OurAirports
3898,Adi Sutjipto International Airport,Yogyakarta,Indonesia,JOG,WARJ,-7.788179874420166,110.43199920654297,350,7,N,Asia/Jakarta,airport,OurAirports
3899,Tunggul Wulung Airport,Cilacap,Indonesia,CXP,WIHL,-7.645060062410001,109.033996582,69,7,N,Asia/Jakarta,airport,OurAirports
3900,Pondok Cabe Air Base,Jakarta,Indonesia,PCB,WIHP,-6.3369598388671875,106.76499938964844,200,7,N,Asia/Jakarta,airport,OurAirports
3901,Achmad Yani Airport,Semarang,Indonesia,SRG,WARS,-6.97273,110.375,10,7,N,Asia/Jakarta,airport,OurAirports
3903,Hang Nadim International Airport,Batam,Indonesia,BTH,WIDD,1.12102997303,104.119003296,126,7,N,Asia/Jakarta,airport,OurAirports
3904,Buluh Tumbang (H A S Hanandjoeddin) Airport,Tanjung Pandan,Indonesia,TJQ,WIOD,-2.74571990967,107.754997253,164,7,N,Asia/Jakarta,airport,OurAirports
3905,Pangkal Pinang (Depati Amir) Airport,Pangkal Pinang,Indonesia,PGK,WIPK,-2.16219997406,106.138999939,109,7,N,Asia/Jakarta,airport,OurAirports
3906,Raja Haji Fisabilillah International Airport,Tanjung Pinang,Indonesia,TNJ,WIDN,0.922683000565,104.531997681,52,7,N,Asia/Jakarta,airport,OurAirports
3907,Dabo Airport,Singkep,Indonesia,SIQ,WIDS,-0.47918900847435,104.5790023803711,95,7,N,Asia/Jakarta,airport,OurAirports
3908,Syamsudin Noor Airport,Banjarmasin,Indonesia,BDJ,WAOO,-3.4423599243164062,114.76300048828125,66,8,N,Asia/Makassar,airport,OurAirports
3909,Batu Licin Airport,Batu Licin,Indonesia,BTW,WAOC,-3.4124100208300003,115.995002747,3,8,N,Asia/Makassar,airport,OurAirports
3910,Iskandar Airport,Pangkalan Bun,Indonesia,PKN,WAOI,-2.70519995689,111.672996521,75,7,N,Asia/Jakarta,airport,OurAirports
3911,Tjilik Riwut Airport,Palangkaraya,Indonesia,PKY,WAOP,-2.22513008118,113.943000793,82,7,N,Asia/Jakarta,airport,OurAirports
3913,Maumere(Wai Oti) Airport,Maumere,Indonesia,MOF,WATC,-8.64064979553,122.236999512,115,8,N,Asia/Makassar,airport,OurAirports
3914,Ende (H Hasan Aroeboesman) Airport,Ende,Indonesia,ENE,WATE,-8.8492898941,121.661003113,49,8,N,Asia/Makassar,airport,OurAirports
3915,Frans Sales Lega Airport,Ruteng,Indonesia,RTG,WATG,-8.5970096588135,120.47699737549,3510,8,N,Asia/Makassar,airport,OurAirports
3916,El Tari Airport,Kupang,Indonesia,KOE,WATT,-10.171600341796875,123.6709976196289,335,8,N,Asia/Makassar,airport,OurAirports
3917,Komodo Airport,Labuhan Bajo,Indonesia,LBJ,WATO,-8.48666,119.889,66,8,N,Asia/Makassar,airport,OurAirports
3919,Sultan Aji Muhamad Sulaiman Airport,Balikpapan,Indonesia,BPN,WALL,-1.26827001572,116.893997192,12,8,N,Asia/Makassar,airport,OurAirports
3920,Juwata Airport,Taraken,Indonesia,TRK,WALR,3.326667,117.569444,23,8,N,Asia/Makassar,airport,OurAirports
3921,Temindung Airport,Samarinda,Indonesia,SRI,WALS,-0.484530985355,117.156997681,33,8,N,Asia/Makassar,airport,OurAirports
3922,Tanjung Santan Airport,Tanjung Santan,Indonesia,TSX,WALT,-0.0929730013013,117.45300293,121,8,N,Asia/Makassar,airport,OurAirports
3923,Selaparang Airport,Mataram,Indonesia,AMI,WADA,-8.560709953309999,116.095001221,52,8,N,Asia/Makassar,airport,OurAirports
3924,Muhammad Salahuddin Airport,Bima,Indonesia,BMU,WADB,-8.5396499633789,118.68699645996,3,8,N,Asia/Makassar,airport,OurAirports
3927,Umbu Mehang Kunda Airport,Waingapu,Indonesia,WGP,WADW,-9.66922,120.302002,33,8,N,Asia/Makassar,airport,OurAirports
3928,Juanda International Airport,Surabaya,Indonesia,SUB,WARR,-7.3798298835754395,112.78700256347656,9,7,N,Asia/Jakarta,airport,OurAirports
3929,Adi Sumarmo Wiryokusumo Airport,Solo City,Indonesia,SOC,WARQ,-7.516089916229248,110.75700378417969,421,7,N,Asia/Jakarta,airport,OurAirports
3930,Incheon International Airport,Seoul,South Korea,ICN,RKSI,37.46910095214844,126.45099639892578,23,9,U,Asia/Seoul,airport,OurAirports
3931,Chiang Mai International Airport,Chiang Mai,Thailand,CNX,VTCC,18.766799926799997,98.962600708,1036,7,U,Asia/Bangkok,airport,OurAirports
3932,Chiang Rai International Airport,Chiang Rai,Thailand,CEI,VTCT,19.952299118,99.88289642330001,1280,7,U,Asia/Bangkok,airport,OurAirports
3933,Nakhon Si Thammarat Airport,Nakhon Si Thammarat,Thailand,NST,VTSF,8.539620399475098,99.9447021484375,13,7,U,Asia/Bangkok,airport,OurAirports
3935,Nakhon Ratchasima Airport,Nakhon Ratchasima,Thailand,NAK,VTUQ,14.94950008392334,102.31300354003906,765,7,U,Asia/Bangkok,airport,OurAirports
3936,Nakhon Phanom Airport,Nakhon Phanom,Thailand,KOP,VTUW,17.383800506591797,104.64299774169922,587,7,U,Asia/Bangkok,airport,OurAirports
3937,Ubon Ratchathani Airport,Ubon Ratchathani,Thailand,UBP,VTUU,15.2512998581,104.870002747,406,7,U,Asia/Bangkok,airport,OurAirports
3938,Khon Kaen Airport,Khon Kaen,Thailand,KKC,VTUK,16.466600418099997,102.783996582,670,7,U,Asia/Bangkok,airport,OurAirports
3939,Sukhothai Airport,Sukhothai,Thailand,THS,VTPO,17.238000869750977,99.81819915771484,179,7,U,Asia/Bangkok,airport,OurAirports
3940,Ngurah Rai (Bali) International Airport,Denpasar,Indonesia,DPS,WADD,-8.7481698989868,115.16699981689,14,8,N,Asia/Makassar,airport,OurAirports
3942,Chubu Centrair International Airport,Nagoya,Japan,NGO,RJGG,34.8583984375,136.80499267578125,15,9,U,Asia/Tokyo,airport,OurAirports
3943,Kobe Airport,Kobe,Japan,UKB,RJBE,34.6328010559082,135.2239990234375,22,9,U,Asia/Tokyo,airport,OurAirports
3964,Zvartnots International Airport,Yerevan,Armenia,EVN,UDYZ,40.1473007202,44.3959007263,2838,4,E,Asia/Yerevan,airport,OurAirports
3965,Gyumri Shirak Airport,Gyumri,Armenia,LWN,UDSG,40.7504005432,43.859298706100006,5000,4,E,Asia/Yerevan,airport,OurAirports
3969,Yasser Arafat International Airport,Gaza,Palestine,GZA,LVGZ,31.24640083313,34.276100158691,320,2,U,Asia/Gaza,airport,OurAirports
3971,Batumi International Airport,Batumi,Georgia,BUS,UGSB,41.6102981567,41.5997009277,105,4,N,Asia/Tbilisi,airport,OurAirports
3972,Kopitnari Airport,Kutaisi,Georgia,KUT,UGKO,42.176700592,42.4826011658,223,4,N,Asia/Tbilisi,airport,OurAirports
3973,Tbilisi International Airport,Tbilisi,Georgia,TBS,UGTB,41.6692008972,44.95470047,1624,4,N,Asia/Tbilisi,airport,OurAirports
3974,Mukalla International Airport,Mukalla,Yemen,RIY,OYRN,14.662599563598633,49.375,54,3,U,Asia/Aden,airport,OurAirports
3975,Ta'izz International Airport,Taiz,Yemen,TAI,OYTZ,13.6859998703,44.139099121099996,4838,3,U,Asia/Aden,airport,OurAirports
3976,Hodeidah International Airport,Hodeidah,Yemen,HOD,OYHD,14.753000259399414,42.97629928588867,41,3,U,Asia/Aden,airport,OurAirports
3977,Aden International Airport,Aden,Yemen,ADE,OYAA,12.829500198364258,45.02880096435547,7,3,U,Asia/Aden,airport,OurAirports
3978,Ataq Airport,Ataq,Yemen,AXK,OYAT,14.551300048828125,46.82619857788086,3735,3,U,Asia/Aden,airport,OurAirports
3979,Al Ghaidah International Airport,Al Ghaidah Intl,Yemen,AAY,OYGD,16.191699981689453,52.17499923706055,134,3,U,Asia/Aden,airport,OurAirports
3980,Sana'a International Airport,Sanaa,Yemen,SAH,OYSN,15.476300239562988,44.21969985961914,7216,3,U,Asia/Aden,airport,OurAirports
3982,Beihan Airport,Beihan,Yemen,BHN,OYBN,14.781999588012695,45.72010040283203,3800,3,U,Asia/Aden,airport,OurAirports
3984,Socotra International Airport,Socotra,Yemen,SCT,OYSQ,12.63070011138916,53.905799865722656,146,3,U,Asia/Aden,airport,OurAirports
3989,Erbil International Airport,Erbil,Iraq,EBL,ORER,36.23759841918945,43.963199615478516,1341,3,U,Asia/Baghdad,airport,OurAirports
3992,Kansai International Airport,Osaka,Japan,KIX,RJBB,34.42729949951172,135.24400329589844,26,9,U,Asia/Tokyo,airport,OurAirports
3994,Tagbilaran Airport,Tagbilaran,Philippines,TAG,RPVT,9.665442,123.853533,38,8,N,Asia/Manila,airport,OurAirports
4000,Surat Thani Airport,Surat Thani,Thailand,URT,VTSB,9.13259983063,99.135597229,20,7,U,Asia/Bangkok,airport,OurAirports
4013,LTS Pulau Redang Airport,Redang,Malaysia,RDN,WMPR,5.765279769897461,103.00700378417969,36,8,N,Asia/Kuala_Lumpur,airport,OurAirports
4030,Sanya Phoenix International Airport,Sanya,China,SYX,ZJSY,18.302900314331055,109.41200256347656,92,8,U,Asia/Shanghai,airport,OurAirports
4033,Lijiang Airport,Lijiang,China,LJG,ZPLJ,26.6800003052,100.246002197,0,8,U,Asia/Shanghai,airport,OurAirports
4054,Dali Airport,Dali,China,DLU,ZPDL,25.649401,100.319,7050,8,U,Asia/Shanghai,airport,OurAirports
4056,Mulu Airport,Mulu,Malaysia,MZV,WBMU,4.048329830169678,114.80500030517578,80,8,N,Asia/Kuala_Lumpur,airport,OurAirports
4078,Tolmachevo Airport,Novosibirsk,Russia,OVB,UNNT,55.012599945068,82.650703430176,365,7,N,Asia/Krasnoyarsk,airport,OurAirports
4081,Xieng Khouang Airport,Phon Savan,Laos,XKH,VLXK,19.450001,103.157997,3445,7,U,Asia/Vientiane,airport,OurAirports
4086,Mae Hong Son Airport,Mae Hong Son,Thailand,HGN,VTCH,19.301300048828125,97.97579956054688,929,7,U,Asia/Bangkok,airport,OurAirports
4090,Francisco Bangoy International Airport,Davao,Philippines,DVO,RPMD,7.1255202293396,125.64600372314453,96,8,N,Asia/Manila,airport,OurAirports
4093,Sihanoukville International Airport,Sihanoukville,Cambodia,KOS,VDSV,10.57970047,103.637001038,33,7,N,Asia/Phnom_Penh,airport,OurAirports
4097,Lhasa Gonggar Airport,Lhasa,China,LXA,ZULS,29.2978000641,90.91190338130001,11713,8,U,Asia/Shanghai,airport,OurAirports
4108,Yaoqiang Airport,Jinan,China,TNA,ZSJN,36.857200622558594,117.21600341796875,76,8,U,Asia/Shanghai,airport,OurAirports
4109,Changzhou Benniu Airport,Changzhou,China,CZX,ZSCG,31.919701,119.778999,0,8,U,Asia/Shanghai,airport,OurAirports
4110,Yibin Caiba Airport,Yibin,China,YBP,ZUYB,28.8005555556,104.545,924,8,U,Asia/Shanghai,airport,OurAirports
4111,Roshchino International Airport,Tyumen,Russia,TJM,USTR,57.189601898199996,65.3243026733,378,5,N,Asia/Yekaterinburg,airport,OurAirports
4120,Haikou Meilan International Airport,Haikou,China,HAK,ZJHK,19.934900283813477,110.45899963378906,75,8,U,Asia/Shanghai,airport,OurAirports
4130,Baghdad International Airport,Baghdad,Iraq,BGW,ORBI,33.262500762900004,44.2346000671,114,3,U,Asia/Baghdad,airport,OurAirports
4131,Nan Airport,Nan,Thailand,NNT,VTCN,18.807899475097656,100.78299713134766,685,7,U,Asia/Bangkok,airport,OurAirports
4132,Roi Et Airport,Roi Et,Thailand,ROI,VTUV,16.11680030822754,103.77400207519531,451,7,U,Asia/Bangkok,airport,OurAirports
4133,Buri Ram Airport,Buri Ram,Thailand,BFV,VTUO,15.229499816894531,103.25299835205078,590,7,U,Asia/Bangkok,airport,OurAirports
4135,Trat Airport,Trat,Thailand,TDX,VTBO,12.274600029,102.319000244,105,7,U,Asia/Bangkok,airport,OurAirports
4137,Al Asad Air Base,Al Asad,Iraq,IQA,ORAA,33.7855987549,42.4412002563,618,3,U,Asia/Baghdad,airport,OurAirports
4138,Al Taqaddum Air Base,Al Taqaddum,Iraq,TQD,ORAT,33.33810043335,43.597099304199,275,3,U,Asia/Baghdad,airport,OurAirports
4139,Joint Base Balad,Al Bakr,Iraq,XQC,ORBD,33.940200805699995,44.361598968500005,161,3,U,Asia/Baghdad,airport,OurAirports
4140,Diosdado Macapagal International Airport,Angeles City,Philippines,CRK,RPLC,15.186,120.559998,484,8,N,Asia/Manila,airport,OurAirports
4141,Sandakan Airport,Sandakan,Malaysia,SDK,WBKS,5.900899887084961,118.05899810791016,46,8,N,Asia/Kuala_Lumpur,airport,OurAirports
4142,Luang Namtha Airport,Luang Namtha,Laos,LXG,VLLN,20.966999,101.400002,1968,7,U,Asia/Vientiane,airport,OurAirports
4143,Oudomsay Airport,Muang Xay,Laos,ODY,VLOS,20.68269920349121,101.99400329589844,1804,7,N,Asia/Vientiane,airport,OurAirports
4144,Taoxian Airport,Shenyang,China,SHE,ZYTX,41.639801025390625,123.48300170898438,198,8,U,Asia/Shanghai,airport,OurAirports
4145,Dongying Shengli Airport,Dongying,China,DOY,ZSDY,37.5085983276,118.788002014,15,8,U,Asia/Shanghai,airport,OurAirports
4148,Luoyang Airport,Luoyang,China,LYA,ZHLY,34.741100311299995,112.388000488,840,8,U,Asia/Shanghai,airport,OurAirports
4149,Xuzhou Guanyin Airport,Xuzhou,China,XUZ,ZSXZ,34.059056,117.555278,0,8,U,Asia/Shanghai,airport,OurAirports
4151,Magway Airport,Magwe,Burma,MWQ,VYMW,20.1656,94.941399,279,6.5,U,Asia/Rangoon,airport,OurAirports
4152,Kanti Airport,Khamti,Burma,KHM,VYKI,25.988300323486328,95.67440032958984,6000,6.5,U,Asia/Rangoon,airport,OurAirports
4153,Lien Khuong Airport,Dalat,Vietnam,DLI,VVDL,11.75,108.366997,3156,7,U,Asia/Saigon,airport,OurAirports
4154,Dong Hoi Airport,Dong Hoi,Vietnam,VDH,VVDH,17.515,106.590556,59,7,U,Asia/Saigon,airport,OurAirports
4155,Rach Gia Airport,Rach Gia,Vietnam,VKG,VVRG,9.95802997234,105.132379532,7,7,U,Asia/Saigon,airport,OurAirports
4156,Cà Mau Airport,Ca Mau,Vietnam,CAH,VVCM,9.177667,105.177778,6,7,U,Asia/Saigon,airport,OurAirports
4157,Chu Lai International Airport,Chu Lai,Vietnam,VCL,VVCA,15.403300285299999,108.706001282,10,7,U,Asia/Saigon,airport,OurAirports
4158,Dong Tac Airport,Tuy Hoa,Vietnam,TBB,VVTH,13.049599647500001,109.333999634,20,7,U,Asia/Saigon,airport,OurAirports
4159,Mae Hong Son Airport,Pai,Thailand,PYY,VTCI,19.3719997406,98.43699646,1271,7,U,Asia/Bangkok,airport,OurAirports
4170,Lukla Airport,Lukla,Nepal,LUA,VNLK,27.686899185180664,86.72969818115234,9380,5.75,N,Asia/Katmandu,airport,OurAirports
4171,Bhojpur Airport,Bhojpur,Nepal,BHP,VNBJ,27.14739990234375,87.05079650878906,4000,5.75,N,Asia/Katmandu,airport,OurAirports
4172,Lamidanda Airport,Lamidanda,Nepal,LDN,VNLD,27.25309944152832,86.66999816894531,4100,5.75,N,Asia/Katmandu,airport,OurAirports
4173,Jomsom Airport,Jomsom,Nepal,JMO,VNJS,28.780426,83.723,8976,5.75,N,Asia/Katmandu,airport,OurAirports
4174,Manang Airport,Manang,Nepal,NGX,VNMA,28.641399,84.089203,11001,5.75,N,Asia/Katmandu,airport,OurAirports
4175,Phaplu Airport,Phaplu,Nepal,PPL,VNPL,27.517787,86.584454,7918,5.75,N,Asia/Katmandu,airport,OurAirports
4177,Rumjatar Airport,Rumjatar,Nepal,RUM,VNRT,27.303499221801758,86.55039978027344,4500,5.75,N,Asia/Katmandu,airport,OurAirports
4178,Tulsipur Airport,Dang,Nepal,DNP,VNDG,28.111099243164062,82.29419708251953,2100,5.75,N,Asia/Katmandu,airport,OurAirports
4179,Rukum Chaurjahari Airport,Rukumkot,Nepal,RUK,VNRK,28.627001,82.195,2500,5.75,N,Asia/Katmandu,airport,OurAirports
4180,Jumla Airport,Jumla,Nepal,JUM,VNJL,29.2742,82.193298,7700,5.75,N,Asia/Katmandu,airport,OurAirports
4182,Taplejung Airport,Taplejung,Nepal,TPJ,VNTJ,27.3509,87.69525,7990,5.75,N,Asia/Katmandu,airport,OurAirports
4183,Tumling Tar Airport,Tumling Tar,Nepal,TMI,VNTR,27.315001,87.193298,1700,5.75,N,Asia/Katmandu,airport,OurAirports
4184,Surkhet Airport,Surkhet,Nepal,SKH,VNSK,28.586,81.636002,2400,5.75,N,Asia/Katmandu,airport,OurAirports
4185,Simikot Airport,Simikot,Nepal,IMK,VNST,29.971099853515625,81.81890106201172,9246,5.75,N,Asia/Katmandu,airport,OurAirports
4186,Dolpa Airport,Dolpa,Nepal,DOP,VNDP,28.985700607299805,82.81909942626953,8200,5.75,N,Asia/Katmandu,airport,OurAirports
4187,Bajhang Airport,Bajhang,Nepal,BJH,VNBG,29.538999557495117,81.1854019165039,4100,5.75,N,Asia/Katmandu,airport,OurAirports
4188,Dhangarhi Airport,Dhangarhi,Nepal,DHI,VNDH,28.753299713134766,80.58190155029297,690,5.75,N,Asia/Katmandu,airport,OurAirports
4189,Muan International Airport,Muan,South Korea,MWX,RKJB,34.991406,126.382814,35,9,U,Asia/Seoul,airport,OurAirports
4199,Francisco B. Reyes Airport,Busuanga,Philippines,USU,RPVV,12.1215000153,120.099998474,148,8,N,Asia/Manila,airport,OurAirports
4200,Bancasi Airport,Butuan,Philippines,BXU,RPME,8.9515,125.4788,141,8,N,Asia/Manila,airport,OurAirports
4201,Dipolog Airport,Dipolog,Philippines,DPL,RPMG,8.60198349877,123.341875076,12,8,N,Asia/Manila,airport,OurAirports
4202,Laoag International Airport,Laoag,Philippines,LAO,RPLI,18.1781005859375,120.53199768066406,25,8,N,Asia/Manila,airport,OurAirports
4203,Legazpi City International Airport,Legazpi,Philippines,LGP,RPLP,13.1575,123.735,66,8,N,Asia/Manila,airport,OurAirports
4204,Labo Airport,Ozamis,Philippines,OZC,RPMO,8.178509712219238,123.84200286865234,75,8,N,Asia/Manila,airport,OurAirports
4206,Mactan Cebu International Airport,Cebu,Philippines,CEB,RPVM,10.307499885559,123.97899627686,31,8,N,Asia/Manila,airport,OurAirports
4272,Qinhuangdao Beidaihe Airport,Bagan,Burma,BPE,ZBDH,39.666389,119.058889,46,8,U,Asia/Shanghai,airport,OurAirports
4295,Ratanakiri Airport,Ratanakiri,Cambodia,RBE,VDRK,13.729999542236328,106.98699951171875,0,7,U,Asia/Phnom_Penh,airport,OurAirports
4297,Bogashevo Airport,Tomsk,Russia,TOF,UNTT,56.380298614502,85.208297729492,597,7,N,Asia/Krasnoyarsk,airport,OurAirports
4299,Phetchabun Airport,Phetchabun,Thailand,PHY,VTPB,16.6760005951,101.194999695,450,7,U,Asia/Bangkok,airport,OurAirports
4300,Chumphon Airport,Chumphon,Thailand,CJM,VTSE,10.711199760437012,99.36170196533203,18,7,U,Asia/Bangkok,airport,OurAirports
4301,Jiuzhai Huanglong Airport,Jiuzhaigou,China,JZH,ZUJZ,32.8533333333,103.682222222,11327,8,U,Asia/Shanghai,airport,OurAirports
4302,Jieyang Chaoshan International Airport,Shantou,China,SWA,ZGOW,23.552,116.5033,0,8,U,Asia/Shanghai,airport,OurAirports
4308,Dunhuang Airport,Dunhuang,China,DNH,ZLDH,40.16109848022461,94.80919647216797,0,8,U,Asia/Shanghai,airport,OurAirports
4330,Imam Khomeini International Airport,Tehran,Iran,IKA,OIIE,35.416099548339844,51.152198791503906,3305,3.5,E,Asia/Tehran,airport,OurAirports
4331,Mashhad International Airport,Mashhad,Iran,MHD,OIMM,36.235198974609375,59.64099884033203,3263,3.5,E,Asia/Tehran,airport,OurAirports
4333,Ust-Ilimsk Airport,Ust Ilimsk,Russia,UIK,UIBS,58.13610076904297,102.56500244140625,1339,8,N,Asia/Irkutsk,airport,OurAirports
4352,Norilsk-Alykel Airport,Norilsk,Russia,NSK,UOOO,69.31109619140625,87.33219909667969,574,7,N,Asia/Krasnoyarsk,airport,OurAirports
4357,Atyrau Airport,Atyrau,Kazakhstan,GUW,UATG,47.12189865112305,51.8213996887207,-72,5,U,Asia/Oral,airport,OurAirports
4358,Kzyl-Orda Southwest Airport,Kzyl-Orda,Kazakhstan,KZO,UAOO,44.706902,65.592499,433,6,U,Asia/Qyzylorda,airport,OurAirports
4364,Novy Urengoy Airport,Novy Urengoy,Russia,NUX,USMU,66.06939697265625,76.52030181884766,210,5,N,Asia/Yekaterinburg,airport,OurAirports
4365,Noyabrsk Airport,Noyabrsk,Russia,NOJ,USRO,63.18330001831055,75.2699966430664,446,5,N,Asia/Yekaterinburg,airport,OurAirports
4367,Aktau Airport,Aktau,Kazakhstan,SCO,UATE,43.8601,51.091999,73,5,U,Asia/Oral,airport,OurAirports
4373,Kogalym International Airport,Kogalym,Russia,KGP,USRK,62.190399169921875,74.53379821777344,220,5,N,Asia/Yekaterinburg,airport,OurAirports
4374,Yemelyanovo Airport,Krasnoyarsk,Russia,KJA,UNKL,56.172901,92.493301,942,7,N,Asia/Krasnoyarsk,airport,OurAirports
4375,Sary-Arka Airport,Karaganda,Kazakhstan,KGF,UAKK,49.670799255371094,73.33439636230469,1765,6,U,Asia/Qyzylorda,airport,OurAirports
4377,Uray Airport,Uraj,Russia,URJ,USHU,60.10329818725586,64.82669830322266,190,5,N,Asia/Yekaterinburg,airport,OurAirports
4380,Longjia Airport,Changchun,China,CGQ,ZYCC,43.9962005615,125.684997559,706,8,U,Asia/Shanghai,airport,OurAirports
4381,Niigata Airport,Niigata,Japan,KIJ,RJSN,37.9558982849,139.121002197,29,9,U,Asia/Tokyo,airport,OurAirports
4390,Shun Tak Heliport,Hong Kong,Hong Kong,HHP,VHST,22.2893714905,114.152153015,107,8,N,Asia/Hong_Kong,airport,OurAirports
5711,Diu Airport,Diu,India,DIU,VA1P,20.71310043334961,70.92109680175781,31,5.5,N,Asia/Calcutta,airport,OurAirports
5780,Ercan International Airport,Nicosia,Cyprus,ECN,LCEN,35.154701232910156,33.49610137939453,404,2,E,Asia/Nicosia,airport,OurAirports
5922,Fayzabad Airport,Faizabad,Afghanistan,FBD,OAFZ,37.121101,70.518097,3872,4.5,U,Asia/Kabul,airport,OurAirports
5925,Al-Jawf Domestic Airport,Al-Jawf,Saudi Arabia,AJF,OESK,29.78510093688965,40.099998474121094,2261,3,U,Asia/Riyadh,airport,OurAirports
5926,Wadi Al Dawasir Airport,Wadi-al-dawasir,Saudi Arabia,WAE,OEWD,20.504299163800003,45.199600219699995,2062,3,U,Asia/Riyadh,airport,OurAirports
5927,Khoram Abad Airport,Khorram Abad,Iran,KHD,OICK,33.43539810180664,48.282901763916016,3782,3.5,E,Asia/Tehran,airport,OurAirports
5928,Bam Airport,Bam,Iran,BXR,OIKM,29.084199905395508,58.45000076293945,3231,3.5,E,Asia/Tehran,airport,OurAirports
5929,Rafsanjan Airport,Rafsanjan,Iran,RJN,OIKR,30.297700881958008,56.05110168457031,5298,3.5,E,Asia/Tehran,airport,OurAirports
5930,Bojnord Airport,Bojnourd,Iran,BJB,OIMN,37.49300003051758,57.30820083618164,3499,3.5,E,Asia/Tehran,airport,OurAirports
5931,Sabzevar National Airport,Sabzevar,Iran,AFZ,OIMS,36.16809844970703,57.59519958496094,3010,3.5,E,Asia/Tehran,airport,OurAirports
5932,Noshahr Airport,Noshahr,Iran,NSH,OINN,36.663299560546875,51.464698791503906,-61,3.5,E,Asia/Tehran,airport,OurAirports
5933,Dasht-e Naz Airport,Dasht-e-naz,Iran,SRY,OINZ,36.635799408,53.193599700899995,35,3.5,E,Asia/Tehran,airport,OurAirports
5934,Lar Airport,Lar,Iran,LRR,OISL,27.6746997833,54.3833007812,2641,3.5,E,Asia/Tehran,airport,OurAirports
5935,Ardabil Airport,Ardabil,Iran,ADU,OITL,38.3256988525,48.4244003296,4315,3.5,E,Asia/Tehran,airport,OurAirports
5936,Urmia Airport,Uromiyeh,Iran,OMH,OITR,37.6680984497,45.0686988831,4343,3.5,E,Asia/Tehran,airport,OurAirports
5937,Al Ain International Airport,Al Ain,United Arab Emirates,AAN,OMAL,24.261699676513672,55.60919952392578,869,4,U,Asia/Dubai,airport,OurAirports
5938,Bannu Airport,Bannu,Pakistan,BNP,OPBN,32.9729,70.527901,1325,5,N,Asia/Karachi,airport,OurAirports
5939,Bahawalpur Airport,Bahawalpur,Pakistan,BHV,OPBW,29.348100662231445,71.71800231933594,392,5,N,Asia/Karachi,airport,OurAirports
5940,Chitral Airport,Chitral,Pakistan,CJL,OPCH,35.886600494384766,71.80059814453125,4920,5,N,Asia/Karachi,airport,OurAirports
5941,Dalbandin Airport,Dalbandin,Pakistan,DBA,OPDB,28.878299713100002,64.3998031616,2800,5,N,Asia/Karachi,airport,OurAirports
5942,Dera Ghazi Khan Airport,Dera Ghazi Khan,Pakistan,DEA,OPDG,29.961000442504883,70.48590087890625,492,5,N,Asia/Karachi,airport,OurAirports
5943,Dera Ismael Khan Airport,Dera Ismael Khan,Pakistan,DSK,OPDI,31.909400939941406,70.89659881591797,594,5,N,Asia/Karachi,airport,OurAirports
5944,Jiwani Airport,Jiwani,Pakistan,JIW,OPJI,25.067800521900004,61.8054008484,186,5,N,Asia/Karachi,airport,OurAirports
5945,Hyderabad Airport,Hyderabad,Pakistan,HDD,OPKD,25.3181,68.366096,130,5,N,Asia/Karachi,airport,OurAirports
5946,Khuzdar Airport,Khuzdar,Pakistan,KDD,OPKH,27.790599823,66.6473007202,4012,5,N,Asia/Karachi,airport,OurAirports
5947,Ormara Airport,Ormara Raik,Pakistan,ORW,OPOR,25.274700164799995,64.58599853519999,10,5,N,Asia/Karachi,airport,OurAirports
5948,Parachinar Airport,Parachinar,Pakistan,PAJ,OPPC,33.902099609400004,70.0716018677,5800,5,N,Asia/Karachi,airport,OurAirports
5949,Skardu Airport,Skardu,Pakistan,KDU,OPSD,35.33549880981445,75.53600311279297,7316,5,N,Asia/Karachi,airport,OurAirports
5950,Sehwan Sharif Airport,Sehwan Sharif,Pakistan,SYW,OPSN,26.473100662231445,67.71720123291016,121,5,N,Asia/Karachi,airport,OurAirports
5951,Turbat International Airport,Turbat,Pakistan,TUK,OPTU,25.986400604248047,63.03020095825195,498,5,N,Asia/Karachi,airport,OurAirports
5952,Sulaymaniyah International Airport,Sulaymaniyah,Iraq,ISU,ORSU,35.5617485046,45.316738128699996,2494,3,U,Asia/Baghdad,airport,OurAirports
5953,Kamishly Airport,Kamishly,Syria,KAC,OSKL,37.020599365234375,41.19139862060547,1480,2,E,Asia/Damascus,airport,OurAirports
5954,Sayun International Airport,Sayun Intl,Yemen,GXF,OYSY,15.9660997391,48.78829956049999,2097,3,U,Asia/Aden,airport,OurAirports
5991,Matsu Nangan Airport,Matsu Islands,Taiwan,LZN,RCFG,26.1598,119.958,232,8,U,Asia/Taipei,airport,OurAirports
5992,Hengchun Airport,Hengchun,Taiwan,HCN,RCKW,22.041099548339844,120.7300033569336,46,8,U,Asia/Taipei,airport,OurAirports
5993,Matsu Beigan Airport,Matsu Islands,Taiwan,MFK,RCMT,26.224199,120.002998,41,8,U,Asia/Taipei,airport,OurAirports
5994,Kushiro Airport,Kushiro,Japan,KUH,RJCK,43.041000366199995,144.192993164,327,9,U,Asia/Tokyo,airport,OurAirports
5995,Okadama Airport,Sapporo,Japan,OKD,RJCO,43.117447,141.38134,25,9,U,Asia/Tokyo,airport,OurAirports
5996,Saga Airport,Saga,Japan,HSG,RJFS,33.149700164799995,130.302001953,6,9,N,Asia/Tokyo,airport,OurAirports
5997,Nagoya Airport,Nagoya,Japan,NKM,RJNA,35.255001068115234,136.9239959716797,52,9,U,Asia/Tokyo,airport,OurAirports
5998,Iwami Airport,Iwami,Japan,IWJ,RJOW,34.676399231,131.789993286,184,9,U,Asia/Tokyo,airport,OurAirports
